City_ID,City,Lat,Lng,Max Temp,Humidity,Cloudiness,Wind Speed,Country,Date
0,ilulissat,69.2167,-51.1,-5.99,53,100,10.8,GL,1707279516
1,fort st. john,56.2499,-120.8529,-7.06,79,75,1.03,CA,1707279517
2,manghit,42.1156,60.0597,3.99,57,75,6.27,UZ,1707279351
3,queenstown,-31.8976,26.8753,19.03,52,14,1.56,ZA,1707279518
4,yellowknife,62.456,-114.3525,-17.47,85,100,5.66,CA,1707279518
5,ushuaia,-54.8,-68.3,12.81,54,0,1.54,AR,1707279519
6,ola,59.5833,151.2833,-14.92,82,96,2.81,RU,1707279519
7,iqaluit,63.7506,-68.5145,-23.15,59,20,2.57,CA,1707279519
8,kamachumu,-1.6186,31.62,17.17,79,73,1.36,TZ,1707279520
9,anadyr,64.75,177.4833,-20.56,83,40,8.0,RU,1707279309
10,minas de marcona,-15.2119,-75.1103,19.57,91,95,4.61,PE,1707279521
11,klyuchi,52.2667,79.1667,-6.5,78,79,6.9,RU,1707279522
12,west island,-12.1568,96.8225,29.99,70,21,4.63,CC,1707279522
13,nemuro,43.3236,145.575,-4.84,64,52,2.28,JP,1707279341
14,waitangi,-43.9535,-176.5597,19.34,89,100,2.68,NZ,1707279523
15,bardai,11.65,7.2333,16.44,28,54,6.36,NG,1707279524
16,hirara,24.8,125.2833,22.92,73,75,6.69,JP,1707279524
17,puerto natales,-51.7236,-72.4875,10.58,94,85,4.2,CL,1707279525
18,ust-nera,64.5667,143.2,-28.41,95,72,0.67,RU,1707279525
19,vadso,70.0744,29.7487,-11.91,92,75,8.23,NO,1707279526
20,kartaly,53.0522,60.6467,-6.1,89,100,6.71,RU,1707279526
21,kudat,6.8837,116.8477,29.96,74,20,2.57,MY,1707279526
22,port-aux-francais,-49.35,70.2167,6.91,99,100,8.37,TF,1707279527
23,touros,-5.1989,-35.4608,26.74,81,100,4.8,BR,1707279528
24,grand baie,-20.0182,57.5802,28.03,78,46,2.24,MU,1707279528
25,cabinda,-5.55,12.2,25.51,84,99,2.31,AO,1707279529
26,mstsislaw,54.0192,31.7257,-3.64,96,100,7.23,BY,1707279529
27,hawaiian paradise park,19.5933,-154.9731,21.69,85,100,3.09,US,1707279530
28,cartagena,10.3997,-75.5144,27.79,69,75,7.72,CO,1707279531
29,puchezh,56.9788,43.1676,-27.14,99,66,2.9,RU,1707279531
30,saint-philippe,-21.3585,55.7679,25.77,81,93,2.77,RE,1707279532
31,tsiombe,-25.3,45.4833,24.16,85,4,1.95,MG,1707279532
32,hamilton,39.1834,-84.5333,3.57,79,0,3.09,US,1707279015
33,fortaleza,-3.7227,-38.5247,30.04,95,40,5.14,BR,1707279301
34,kuqa,41.7278,82.9364,-2.33,59,5,1.38,CN,1707279533
35,kuznia raciborska,50.2006,18.3115,9.16,72,100,8.78,PL,1707279534
36,hinton,53.4001,-117.5857,-4.18,92,99,0.85,CA,1707279534
37,blackmans bay,-43.0167,147.3167,20.85,48,26,1.79,AU,1707279534
38,sandnessjoen,66.0217,12.6316,-15.71,95,100,8.18,NO,1707279256
39,zapolyarnyy,69.4154,30.8136,-19.4,97,98,3.7,RU,1707279535
40,fort bragg,35.139,-79.006,4.9,50,0,4.12,US,1707279536
41,taulaga,-11.0553,-171.0883,28.16,84,100,11.8,AS,1707279536
42,kavaratti,10.5669,72.642,28.2,70,40,3.52,IN,1707279536
43,marco island,25.9363,-81.7157,15.0,69,0,4.12,US,1707279537
44,bethel,41.3712,-73.414,0.27,73,0,0.0,US,1707279537
45,port mathurin,-19.6833,63.4167,26.94,70,40,6.96,MU,1707279537
46,grytviken,-54.2811,-36.5092,8.78,57,26,2.17,GS,1707279538
47,luwuk,-0.9516,122.7875,31.38,62,94,1.53,ID,1707279538
48,tura,25.5198,90.2201,19.98,49,0,1.42,IN,1707279539
49,vilyuysk,63.7553,121.6247,-26.11,96,97,1.34,RU,1707279251
50,adamstown,-25.066,-130.1015,24.82,87,94,6.35,PN,1707279539
51,turpan,42.9333,89.1667,3.8,40,17,0.47,CN,1707279540
52,kanash,55.5086,47.4956,-16.48,93,100,6.97,RU,1707279540
53,margaret river,-33.95,115.0667,26.96,38,0,3.84,AU,1707279540
54,st. john's,47.5649,-52.7093,-0.12,90,100,12.96,CA,1707279390
55,san antonio de pale,-1.4014,5.6325,27.85,75,65,2.61,GQ,1707279541
56,langepas,61.2544,75.2124,-1.35,93,99,5.37,RU,1707279541
57,edinburgh of the seven seas,-37.0676,-12.3116,16.7,62,93,1.21,SH,1707279542
58,namibe,-15.1961,12.1522,25.0,81,100,1.38,AO,1707279542
59,gunjur,13.2019,-16.7339,22.04,64,0,0.0,GM,1707279543
60,long beach,33.767,-118.1892,11.14,96,100,2.06,US,1707279543
61,new norfolk,-42.7826,147.0587,21.51,27,29,2.35,AU,1707279543
62,aasiaat,68.7098,-52.8699,-7.87,85,100,8.35,GL,1707279544
63,acajutla,13.5928,-89.8275,23.14,49,0,4.87,SV,1707279545
64,rio preto da eva,-2.6994,-59.6997,24.46,85,94,1.24,BR,1707279545
65,lebu,-37.6167,-73.65,17.52,98,100,1.12,CL,1707279545
66,puerto baquerizo moreno,-0.9,-89.6,25.48,86,43,5.05,EC,1707279295
67,ulanhot,46.0833,122.0833,-7.12,45,0,3.92,CN,1707279546
68,wailua homesteads,22.0669,-159.378,25.24,72,100,8.23,US,1707279546
69,tottori,35.5,134.2333,5.04,87,75,2.06,JP,1707279547
70,albany,42.6001,-73.9662,-1.77,74,21,0.89,US,1707279433
71,kukuna,9.4,-12.6667,22.19,86,0,0.57,SL,1707279547
72,laascaanood,8.4774,47.3597,19.2,70,4,3.23,SO,1707279548
73,peterborough,52.5736,-0.2478,4.43,87,100,2.57,GB,1707279548
74,itaberaba,-12.5275,-40.3069,21.72,93,77,0.88,BR,1707279548
75,kavieng,-2.5744,150.7967,27.6,82,98,4.22,PG,1707279549
76,tazovsky,67.4667,78.7,-20.16,100,96,3.19,RU,1707279549
77,six-fours-les-plages,43.0938,5.84,8.58,85,100,5.34,FR,1707279550
78,susuman,62.7833,148.1667,-29.45,100,98,0.45,RU,1707279550
79,ternate,0.8,127.4,27.87,74,100,3.75,ID,1707279550
80,agdam,39.991,46.9274,3.17,83,7,0.85,AZ,1707279551
81,horta,38.5333,-28.6333,16.68,93,89,6.26,PT,1707279551
82,badger,64.8,-147.5333,-15.91,84,75,0.0,US,1707279552
83,sogne,58.0833,7.8167,-2.95,90,100,0.43,NO,1707279552
84,sydney,-33.8679,151.2073,24.87,70,75,11.32,AU,1707279081
85,haiku-pauwela,20.9219,-156.3051,22.92,66,0,10.29,US,1707279553
86,yangp'yong,37.4897,127.4906,3.77,60,75,1.54,KR,1707279553
87,thompson,55.7435,-97.8558,-17.91,71,100,2.57,CA,1707279554
88,buka,40.8108,69.1986,8.18,38,100,2.44,UZ,1707279314
89,avarua,-21.2078,-159.775,28.03,78,75,5.14,CK,1707279554
90,itoman,26.1247,127.6694,21.43,74,75,2.57,JP,1707279410
91,qaqortoq,60.7167,-46.0333,-13.58,65,4,4.9,GL,1707279555
92,uravakonda,14.95,77.2667,27.76,37,0,3.05,IN,1707279555
93,mont-dore,-22.2833,166.5833,29.99,79,100,6.51,NC,1707279406
94,fada,9.5667,8.3,18.12,29,64,3.32,NG,1707279556
95,devils lake,48.1128,-98.8651,0.06,93,100,3.6,US,1707279556
96,nsanje,-16.92,35.262,23.76,92,65,1.37,MW,1707279557
97,bredasdorp,-34.5322,20.0403,18.47,72,0,3.98,ZA,1707279557
98,atripalda,40.9158,14.8246,10.28,86,100,2.24,IT,1707279558
99,brookings,44.3114,-96.7984,5.06,98,0,3.09,US,1707279327
100,cromer,52.9312,1.2989,5.04,78,100,3.92,GB,1707279559
101,camargo,27.6667,-105.1667,16.26,21,50,4.73,MX,1707279559
102,mazagao,-0.115,-51.2894,27.03,95,43,1.16,BR,1707279559
103,inirida,3.8653,-67.9239,23.6,95,92,0.63,CO,1707279560
104,bilibino,68.0546,166.4372,-33.71,100,100,0.79,RU,1707279560
105,port elizabeth,-33.918,25.5701,22.28,86,20,7.72,ZA,1707279561
106,nagqu,31.5,92.0,-4.61,12,0,8.2,CN,1707279561
107,ribeira grande,38.5167,-28.7,17.1,93,90,6.26,PT,1707279562
108,rongelap,11.1635,166.8941,26.81,81,96,6.3,MH,1707279563
109,mogocha,53.7333,119.7667,-8.06,71,37,1.44,RU,1707279563
110,bhamo,24.2667,97.2333,17.74,84,96,0.57,MM,1707279564
111,monrovia,6.3005,-10.7969,26.42,85,7,0.57,LR,1707279564
112,meadow lake,34.8014,-106.5436,11.73,49,100,6.93,US,1707279565
113,berezovyy,51.6667,135.7,-11.73,62,23,1.11,RU,1707279565
114,whitehorse,60.7161,-135.0538,-14.95,81,100,1.54,CA,1707279566
115,basco,20.4487,121.9702,25.03,76,4,5.49,PH,1707279566
116,constantia,44.1833,28.65,9.38,68,99,5.02,RO,1707279551
117,opuwo,-18.0607,13.84,19.91,89,98,1.11,NA,1707279567
118,atafu village,-8.5421,-172.5159,28.75,81,94,10.66,TK,1707279567
119,blenheim,-41.516,173.9528,24.18,52,3,1.79,NZ,1707279568
120,jamestown,42.097,-79.2353,-1.2,86,0,0.0,US,1707279456
121,vilyuchinsk,52.9306,158.4028,-4.85,80,100,0.42,RU,1707279569
122,lihue,21.9789,-159.3672,25.58,72,100,8.23,US,1707279569
123,mao,39.8885,4.2658,12.31,87,75,1.54,ES,1707279570
124,puerto lempira,15.2667,-83.7667,24.32,55,76,9.45,HN,1707279570
125,utrik,11.2278,169.8474,26.75,80,90,6.99,MH,1707279571
126,al quwayrah,29.8004,35.3116,7.28,74,0,1.9,JO,1707279571
127,olonkinbyen,70.9221,-8.7187,-3.31,93,92,8.5,SJ,1707279572
128,tiksi,71.6872,128.8694,-27.64,99,98,2.83,RU,1707279572
129,shenjiamen,29.9576,122.298,5.83,73,100,7.41,CN,1707279384
130,ankazoabo,-22.2833,44.5167,22.13,93,97,1.67,MG,1707279573
131,punta del este,-34.9667,-54.95,22.2,79,0,5.14,UY,1707279573
132,cill airne,52.05,-9.5167,4.0,88,100,1.3,IE,1707279574
133,san patricio,28.017,-97.5169,15.47,71,75,3.18,US,1707279575
134,kerikeri,-35.2268,173.9474,23.29,63,13,3.56,NZ,1707279576
135,nar'yan-mar,67.6713,53.087,-24.94,97,100,1.79,RU,1707279358
136,konya,38.1667,32.5,-2.29,54,8,1.66,TR,1707279577
137,nuuk,64.1835,-51.7216,-5.66,35,75,15.95,GL,1707279577
138,port lincoln,-34.7333,135.8667,20.31,60,18,5.47,AU,1707279577
139,antsiranana,-12.2787,49.2917,24.28,92,100,0.8,MG,1707279421
140,stanley,54.868,-1.6985,-0.12,86,0,1.54,GB,1707279578
141,zhaqsy,51.9083,67.3133,0.06,98,100,11.05,KZ,1707279578
142,papatowai,-46.5619,169.4708,16.59,56,13,4.34,NZ,1707279579
143,bubaque,11.2833,-15.8333,26.11,71,0,4.94,GW,1707279579
144,kapa'a,22.0752,-159.319,25.99,72,100,8.23,US,1707279579
145,torquay,50.4638,-3.5143,11.59,96,100,3.58,GB,1707279580
146,tabou,4.423,-7.3528,26.59,81,19,1.23,CI,1707279580
147,leh,34.1667,77.5833,-19.25,85,68,0.82,IN,1707279580
148,santa rosa de viterbo,-21.4728,-47.3631,21.4,79,100,0.27,BR,1707279581
149,afaahiti,-17.75,-149.2833,27.93,94,100,8.9,PF,1707279581
150,dibba al-hisn,25.6196,56.2729,17.1,60,11,4.34,AE,1707279582
151,san luis,-33.295,-66.3356,26.74,45,0,6.45,AR,1707279582
152,east london,-33.0153,27.9116,22.52,83,40,5.14,ZA,1707279583
153,codrington,-38.2667,141.9667,19.8,53,39,5.99,AU,1707279583
154,nagai,38.1036,140.035,2.34,72,91,1.43,JP,1707279339
155,isafjordur,66.0755,-23.124,-3.04,92,100,5.9,IS,1707279585
156,ekibastuz,51.6667,75.3667,-2.88,75,89,6.07,KZ,1707279585
157,gadzhiyevo,69.2551,33.3362,-22.36,100,98,3.3,RU,1707279586
158,fortuna,40.5982,-124.1573,9.25,94,75,0.45,US,1707279586
159,jatiroto,-7.8833,111.1167,28.62,70,88,2.22,ID,1707279587
160,trinidad,-14.8333,-64.9,23.33,95,40,1.74,BO,1707279587
161,labytnangi,66.6572,66.4183,-20.24,98,100,1.66,RU,1707279588
162,avsyunino,55.5652,39.1232,-14.98,100,100,1.26,RU,1707279588
163,port blair,11.6667,92.75,28.34,60,46,5.88,IN,1707279589
164,adi keyh,14.8444,39.3772,11.26,85,72,0.87,ER,1707279589
165,ouargla,31.9493,5.325,6.04,56,0,2.06,DZ,1707279590
166,newman,37.3138,-121.0208,10.19,90,100,0.45,US,1707279590
167,mount pearl,47.5166,-52.7813,-0.58,91,100,11.83,CA,1707279590
168,divo,5.8397,-5.36,21.74,98,5,0.44,CI,1707279378
169,shanghai,31.2222,121.4581,4.96,82,0,5.0,CN,1707279469
170,usogorsk,63.4106,48.6872,-31.4,100,99,1.23,RU,1707279591
171,padang,-0.9492,100.3543,31.03,70,100,1.1,ID,1707279592
172,magadan,59.5667,150.8,-15.26,79,98,2.41,RU,1707279592
173,camayenne,9.535,-13.6878,27.05,89,0,2.06,GN,1707279593
174,shimoda,34.6667,138.95,8.2,71,96,2.77,JP,1707279576
175,ormara,25.2088,64.6357,21.52,53,95,1.42,PK,1707279593
176,san pedro,14.35,121.0167,30.75,60,40,4.02,PH,1707279593
177,dongsheng,39.8161,109.9776,-7.9,66,58,2.4,CN,1707279594
178,canacona,14.9959,74.0506,29.68,39,0,1.28,IN,1707279594
179,college,64.8569,-147.8028,-15.86,81,75,0.0,US,1707279570
180,tolanaro,-25.0319,46.9987,23.83,91,17,2.62,MG,1707279595
181,kill devil hills,36.0307,-75.676,5.55,76,100,9.26,US,1707279595
182,punta arenas,-53.15,-70.9167,12.06,62,75,5.14,CL,1707279595
183,nova sintra,14.8667,-24.7167,21.01,72,0,5.75,CV,1707279596
184,pisco,-13.7,-76.2167,24.03,83,0,5.14,PE,1707279596
185,siniscola,40.5719,9.6922,6.75,56,100,2.09,IT,1707279596
186,happy valley-goose bay,53.3168,-60.3315,-17.83,78,20,1.54,CA,1707279597
187,carboneras,37.0015,-1.9213,14.28,55,12,2.12,ES,1707279597
188,barra de santo antonio,-9.4047,-35.5072,25.6,84,88,2.21,BR,1707279598
189,bac lieu,9.285,105.7244,29.13,67,100,5.32,VN,1707279598
190,zaozersk,69.4005,32.4476,-22.54,98,97,2.36,RU,1707279599
191,bovril,-31.3431,-59.4451,26.06,53,18,4.43,AR,1707279599
192,mersing,2.4312,103.8405,29.95,74,40,5.14,MY,1707279599
193,melfort,52.8667,-104.6177,-7.93,86,96,2.06,CA,1707279600
194,salekhard,66.53,66.6019,-20.33,98,100,1.75,RU,1707279600
195,tan-tan,28.438,-11.1032,15.63,32,3,2.65,MA,1707279601
196,kone,-21.0595,164.8658,29.67,67,100,3.99,NC,1707279601
197,ouallam,14.3188,2.0866,17.95,18,17,5.27,NE,1707279601
198,la ronge,55.1001,-105.2842,-13.86,85,100,4.12,CA,1707279602
199,mount isa,-20.7333,139.5,34.87,41,40,6.17,AU,1707279602
200,puerto ayacucho,5.6639,-67.6236,24.86,90,69,1.69,VE,1707279603
201,kodiak,57.79,-152.4072,2.73,87,100,6.17,US,1707279329
202,sinabang,2.4803,96.3801,29.51,68,100,2.14,ID,1707279604
203,zayed city,24.3768,54.589,22.22,60,20,4.63,AE,1707279604
204,tongchuanshi,35.0806,109.0897,0.26,46,100,1.32,CN,1707279605
205,khandyga,62.6667,135.6,-31.39,93,100,0.51,RU,1707279606
206,sitka,57.0531,-135.33,0.94,86,0,0.0,US,1707279606
207,vorgashor,67.5833,63.95,-25.77,97,59,2.61,RU,1707279606
208,selfoss,63.9331,-20.9971,-8.3,88,29,4.22,IS,1707279607
209,quellon,-43.1167,-73.6167,10.3,73,27,2.13,CL,1707279607
210,zavodskoy,43.4597,132.2922,-4.23,25,3,6.0,RU,1707279608
211,ancud,-41.8697,-73.8203,12.59,69,98,5.14,CL,1707279592
212,nangong,37.3581,115.3744,4.09,49,1,1.2,CN,1707279609
213,kruhlaye,54.2466,29.7957,-2.01,99,100,4.55,BY,1707279609
214,uturoa,-16.7333,-151.4333,28.22,88,100,14.55,PF,1707279610
215,puerto ayora,-0.7393,-90.3518,25.12,88,74,3.73,EC,1707279610
216,portland,45.5234,-122.6762,8.32,92,75,2.06,US,1707279152
217,al mijlad,11.0333,27.7333,16.11,20,34,5.68,SD,1707279611
218,arraial do cabo,-22.9661,-42.0278,25.11,88,100,1.72,BR,1707279612
219,petropavlovsk-kamchatsky,53.0452,158.6483,-5.67,76,75,2.0,RU,1707279612
220,mili,6.0815,171.735,27.87,73,95,8.13,MH,1707279613
221,miles city,46.4083,-105.8406,1.54,86,0,7.72,US,1707279614
222,papao,-17.75,-149.55,28.82,89,100,11.42,PF,1707279614
223,nampula,-15.1165,39.2666,21.97,94,75,1.03,MZ,1707279615
224,katsuura,35.1333,140.3,9.13,50,100,4.39,JP,1707279615
225,walvis bay,-22.9575,14.5053,18.4,89,83,3.57,NA,1707279616
226,yanta,36.2411,115.6672,3.63,50,31,0.9,CN,1707279617
227,port augusta,-32.5,137.7667,27.75,24,0,7.14,AU,1707279617
228,erzincan,39.75,39.5,-1.39,93,20,1.03,TR,1707279618
229,worland,44.0169,-107.9554,7.64,82,0,0.0,US,1707279618
230,la'ie,21.6477,-157.9253,23.98,71,11,4.02,US,1707279619
231,kargasok,59.0556,80.8572,-6.69,97,100,3.13,RU,1707279620
232,runcu,45.1167,23.1333,7.29,81,82,2.38,RO,1707279620
233,okuta,9.2167,3.1833,22.42,19,79,3.09,NG,1707279621
234,saint-francois,46.4154,3.9054,7.58,83,0,2.06,FR,1707279622
235,udachny,66.4167,112.4,-28.64,75,99,1.81,RU,1707279623
236,mejit,10.2753,170.8646,26.99,80,100,7.86,MH,1707279623
237,hermanus,-34.4187,19.2345,19.89,85,7,5.44,ZA,1707279625
238,port alfred,-33.5906,26.891,21.21,85,97,4.02,ZA,1707279625
239,sidney,-33.8679,151.2073,24.77,71,75,11.83,AU,1707279472
240,enewetak,11.3474,162.3373,26.65,81,99,7.51,MH,1707279626
241,georgetown,5.4112,100.3354,30.97,72,20,5.14,MY,1707279528
242,coquimbo,-29.9533,-71.3436,18.85,94,0,1.54,CL,1707279585
243,westport,41.1415,-73.3579,0.97,71,0,1.54,US,1707279427
244,invercargill,-46.4,168.35,17.23,61,17,4.92,NZ,1707279629
245,palikir - national government center,6.9248,158.1611,30.47,74,100,5.14,FM,1707279630
246,lagoa,39.05,-27.9833,16.18,90,90,11.52,PT,1707279631
247,maloye ganyushkino,46.6,49.2667,-0.91,76,38,8.26,KZ,1707279631
248,santona,43.4439,-3.4576,9.01,80,81,2.3,ES,1707279632
249,kharp,66.8014,65.8081,-19.93,99,100,1.33,RU,1707279633
250,mhangura,-16.8939,30.1683,17.32,93,4,0.65,ZW,1707279634
251,lorengau,-2.0226,147.2712,27.13,86,100,5.82,PG,1707279636
252,aleksandrovsk-sakhalinskiy,50.8975,142.1561,-13.02,83,76,1.87,RU,1707279637
253,inongo,-1.95,18.2667,23.59,84,76,2.33,CD,1707279638
254,margate,51.3813,1.3862,5.73,94,100,2.24,GB,1707279479
255,lib,8.3122,167.3766,27.52,75,95,6.69,MH,1707279639
256,domanivka,47.6319,30.9885,5.55,80,100,4.02,UA,1707279639
257,keflavik,64.0049,-22.5624,-1.05,86,75,11.32,IS,1707279639
258,kokshetau,53.2775,69.3883,-3.82,86,0,12.0,KZ,1707279640
259,rosario del tala,-32.3029,-59.1455,28.15,51,8,2.98,AR,1707279633
260,prince rupert,54.3161,-130.3201,1.83,100,100,5.66,CA,1707279640
261,ulaangom,49.9811,92.0667,-27.83,97,99,1.14,MN,1707279642
262,jayapura,-2.5333,140.7,28.66,93,100,4.53,ID,1707279644
263,paragominas,-2.9667,-47.4833,22.59,98,24,1.4,BR,1707279392
264,christchurch,-43.5333,172.6333,23.3,63,73,6.17,NZ,1707279618
265,natal,-5.795,-35.2094,28.12,78,40,2.57,BR,1707279646
266,kurumkan,54.3,110.3,-12.71,93,63,0.45,RU,1707279647
267,santa ana,33.7456,-117.8678,11.2,94,100,1.54,US,1707278995
268,naze,28.3667,129.4833,15.51,80,100,5.89,JP,1707279648
269,rabaul,-4.1967,152.1721,29.28,74,96,7.22,PG,1707279648
270,eastham,41.8301,-69.9739,2.19,79,75,6.26,US,1707279483
271,puerto gaitan,4.3133,-72.0816,28.02,67,71,0.71,CO,1707279650
272,taesal-li,36.9714,126.4542,0.24,65,35,2.01,KR,1707279651
273,amga,60.8953,131.9608,-26.01,94,100,0.72,RU,1707279651
274,kokpekty,48.75,82.4,-11.89,85,91,2.68,KZ,1707279652
275,boguchany,58.3814,97.4531,-8.41,89,96,1.34,RU,1707279368
276,iskateley,67.6803,53.1512,-24.99,97,100,1.79,RU,1707279653
277,rolesville,35.9232,-78.4575,3.16,58,0,2.06,US,1707279653
278,kourou,5.1552,-52.6478,27.03,92,19,3.53,GF,1707279654
279,peterhead,57.5058,-1.7981,-1.42,72,33,3.0,GB,1707279654
280,ambon,-3.6954,128.1814,33.08,55,40,6.69,ID,1707279380
281,lompoc,34.6391,-120.4579,11.55,84,75,3.6,US,1707279655
282,cidreira,-30.1811,-50.2056,23.58,86,100,5.69,BR,1707279389
283,cabo san lucas,22.8909,-109.9124,22.61,80,62,5.95,MX,1707279365
284,ilebo,-4.3167,20.5833,21.37,98,87,0.7,CD,1707279657
285,colonia,50.9333,6.95,11.65,81,75,8.75,DE,1707279385
286,alice springs,-23.7,133.8833,32.34,38,40,8.75,AU,1707279657
287,bayanhongor,46.7167,100.1167,-19.96,71,37,0.18,MN,1707279658
288,ivdel',60.6911,60.4206,-14.34,96,100,3.58,RU,1707279658
289,ponta delgada,37.7333,-25.6667,17.4,94,40,8.23,PT,1707279658
290,bakori,11.5544,7.4243,15.68,30,72,5.98,NG,1707279659
291,gaspe,48.8334,-64.4819,-6.05,92,0,2.06,CA,1707279503
292,greymouth,-42.4667,171.2,19.77,69,65,2.97,NZ,1707279659
293,meadow lakes,61.6247,-149.6011,-3.23,83,0,0.0,US,1707279660
294,tamalpais valley,37.8796,-122.5458,11.93,80,8,0.45,US,1707279660
295,hithadhoo,-0.6,73.0833,28.4,74,35,3.05,MV,1707279660
296,lazaro cardenas,17.9583,-102.2,24.72,77,20,0.98,MX,1707279661
297,bucak,37.4592,30.595,-1.71,79,5,0.2,TR,1707279661
298,gazli,40.1333,63.45,6.53,66,100,7.22,UZ,1707279662
299,salinopolis,-0.6136,-47.3561,26.87,85,90,4.61,BR,1707279662
300,egilsstadir,65.2653,-14.3948,-7.05,93,75,1.54,IS,1707279663
301,laojunmiao,39.8333,97.7333,-4.88,46,86,1.58,CN,1707279664
302,qacha's nek,-30.1154,28.6894,14.42,45,55,2.94,LS,1707279665
303,viedma,-40.8135,-62.9967,25.73,71,14,4.45,AR,1707279665
304,ceeldheer,3.8488,47.1806,26.0,85,89,6.73,SO,1707279666
305,lerwick,60.1545,-1.1494,1.0,55,99,8.12,GB,1707279666
306,tukrah,32.5341,20.5791,13.87,80,0,4.04,LY,1707279667
307,suva,-18.1416,178.4415,28.71,65,75,3.09,FJ,1707279667
308,carnarvon,-24.8667,113.6333,33.71,44,5,5.58,AU,1707279668
309,ceara mirim,-5.6344,-35.4256,28.13,83,20,2.06,BR,1707279668
310,fale old settlement,-9.3852,-171.2468,28.8,81,100,10.4,TK,1707279669
311,saldanha,-33.0117,17.9442,17.44,94,0,3.72,ZA,1707279669
312,hadibu,12.65,54.0333,25.12,71,32,3.65,YE,1707279670
313,antalaha,-14.9003,50.2788,25.1,89,97,1.01,MG,1707279671
314,brokopondo,4.75,-55.1667,24.35,94,88,3.26,SR,1707279671
315,syanno,54.8106,29.7069,-3.05,95,100,7.4,BY,1707279672
316,barcelos,41.5388,-8.6151,14.08,88,100,2.37,PT,1707279672
317,rancho palos verdes,33.7445,-118.387,10.53,97,100,2.24,US,1707279659
318,karpinsk,59.7654,60.0085,-12.69,95,100,4.05,RU,1707279673
319,bikenibeu village,1.3673,173.1241,29.98,79,75,3.6,KI,1707279673
320,longyearbyen,78.2186,15.6401,-9.09,67,75,7.72,SJ,1707279674
321,tromso,69.6496,18.957,-4.99,93,100,0.0,NO,1707279625
322,porto novo,6.4965,2.6036,23.9,63,29,1.17,BJ,1707279675
323,peniche,39.3558,-9.3811,15.62,97,100,3.97,PT,1707279675
324,crane,31.3974,-102.3501,13.45,50,100,10.62,US,1707279676
325,mugia,43.1041,-9.2179,14.95,92,100,10.11,ES,1707279677
326,broome,42.2506,-75.833,-0.79,81,0,2.57,US,1707279678
327,yudong,29.385,106.5194,8.61,95,100,1.67,CN,1707279678
328,shetpe,44.1667,52.1167,-0.31,88,100,10.03,KZ,1707279679
329,lubao,14.9167,120.55,32.04,48,7,3.31,PH,1707279679
330,flying fish cove,-10.4217,105.6791,28.82,78,100,2.57,CX,1707279680
331,dudinka,69.4058,86.1778,-13.54,85,100,2.23,RU,1707279680
332,talnakh,69.4865,88.3972,-13.77,83,100,2.94,RU,1707279681
333,chegdomyn,51.1167,133.0167,-18.24,83,85,0.83,RU,1707279682
334,kirakira,-10.4544,161.9205,29.86,72,71,5.68,SB,1707279682
335,kiunga,-6.1219,141.2906,23.39,99,100,2.05,PG,1707279683
336,mitu,1.1983,-70.1733,23.2,99,100,0.26,CO,1707279684
337,yanacancha,-10.2411,-76.6456,6.44,89,86,1.62,PE,1707279685
338,ellsworth,44.5434,-68.4195,-0.78,84,0,2.06,US,1707279686
339,lospalos,-8.5186,127.0025,30.06,57,94,2.18,TL,1707279687
340,hami,42.8,93.45,-1.37,45,4,1.32,CN,1707279687
341,karwar,14.8,74.1333,28.86,41,1,1.34,IN,1707279688
342,kolonia,50.9333,6.95,11.65,81,75,8.75,DE,1707279603
343,safi,32.1667,-8.8333,11.97,53,0,2.23,MA,1707279689
344,tarnogskiy gorodok,60.4997,43.5761,-31.42,100,98,1.06,RU,1707279564
345,breckenridge,32.7557,-98.9023,15.11,55,0,6.06,US,1707279691
346,yatou,37.15,122.3833,-0.52,66,0,7.87,CN,1707279692
347,nishinoomote,30.7333,131.0,12.31,76,75,5.14,JP,1707279692
348,timimoun,29.2639,0.231,8.21,46,0,2.57,DZ,1707279692
349,zavoronezhskoye,52.8801,40.5526,-13.05,98,95,1.76,RU,1707279693
350,huilong,31.8111,121.655,5.49,62,99,6.21,CN,1707279694
351,tonj,7.2737,28.6822,21.21,23,48,2.17,SS,1707279694
352,illizi,26.4833,8.4667,6.89,28,92,1.7,DZ,1707279695
353,twon-brass,4.3151,6.2418,27.0,81,43,2.38,NG,1707279695
354,loudi,27.7344,111.9944,0.46,97,100,1.33,CN,1707279696
355,port saint john's,-31.6229,29.5448,22.67,88,62,6.4,ZA,1707279696
356,benguela,-12.5763,13.4055,25.71,84,100,2.85,AO,1707279697
357,dapa,9.7594,126.0531,26.55,81,98,3.81,PH,1707279697
358,petoskey,45.3733,-84.9553,0.62,92,100,1.54,US,1707279697
359,mar del plata,-38.0023,-57.5575,23.38,88,0,6.71,AR,1707279698
360,dauphin,51.1494,-100.0502,-1.92,100,100,3.6,CA,1707279698
361,kalengwa,-13.4659,25.0027,16.42,99,91,1.46,ZM,1707279698
362,maxixe,-23.8597,35.3472,22.9,94,20,0.0,MZ,1707279699
363,gizo,-8.103,156.8419,29.31,76,63,6.8,SB,1707279699
364,stephenville,32.2207,-98.2023,13.44,58,0,2.06,US,1707279673
365,saudarkrokur,65.7461,-19.6394,-5.28,79,55,2.73,IS,1707279700
366,mogadishu,2.0371,45.3438,27.93,83,75,6.69,SO,1707279700
367,dolores,-36.3132,-57.6792,21.0,94,100,5.11,AR,1707279701
368,urumqi,43.801,87.6005,-14.47,85,40,1.0,CN,1707279701
369,george town,5.4112,100.3354,30.97,72,20,5.14,MY,1707279416
370,kencong,-8.2833,113.3667,29.17,72,99,2.04,ID,1707279702
371,kidal,18.4411,1.4078,14.67,25,70,5.13,ML,1707279702
372,anda,46.4,125.3167,-9.26,78,5,3.06,CN,1707279703
373,yuzhno-kurilsk,44.0306,145.8556,-5.9,63,29,3.45,RU,1707279703
374,acapulco de juarez,16.8634,-99.8901,25.9,73,40,2.57,MX,1707279446
375,cooper's town,26.8667,-77.5167,20.61,71,95,14.98,BS,1707279704
376,benghazi,32.1167,20.0667,15.99,71,3,3.33,LY,1707279704
377,ust'-kulom,61.6864,53.6902,-14.32,96,100,2.22,RU,1707279705
378,alaghsas,17.0187,8.0168,14.85,26,52,4.81,NE,1707279706
379,talcahuano,-36.7167,-73.1167,18.82,100,100,3.09,CL,1707279706
380,kokologo,12.1897,-1.8856,19.92,17,95,5.21,BF,1707279707
381,thief river falls,48.1191,-96.1812,0.53,93,100,2.06,US,1707279707
382,isangel,-19.55,169.2667,27.06,94,100,2.06,VU,1707279708
383,rosarito,32.3333,-117.0333,12.84,78,80,4.57,MX,1707279708
384,pemangkat,1.1667,108.9667,27.61,81,100,2.05,ID,1707279709
385,sabang,5.8933,95.3214,27.97,76,27,6.72,ID,1707279709
386,rio grande,-32.035,-52.0986,20.99,85,23,4.45,BR,1707279709
387,lisbon,38.7167,-9.1333,16.15,77,40,4.02,PT,1707279502
388,coahuayana de hidalgo,18.7,-103.6583,23.64,84,48,0.73,MX,1707279710
389,manavalakurichi,8.1333,77.3,28.33,51,7,2.9,IN,1707279711
390,teguise,29.0605,-13.564,14.12,82,0,4.12,ES,1707279711
391,santa maria maddalena,44.8957,11.6084,7.27,90,77,0.45,IT,1707279711
392,shaowu,27.3409,117.4831,5.26,95,100,1.3,CN,1707279712
393,kolonia town,6.964,158.206,31.06,74,100,5.14,FM,1707279712
394,san julian,21.0167,-102.1667,15.13,16,0,2.03,MX,1707279713
395,ambatolampy,-19.3833,47.4167,17.31,92,98,1.03,MG,1707279713
396,plouzane,48.3833,-4.6167,12.1,94,100,9.26,FR,1707279713
397,birobidzhan,48.8,132.95,-16.77,81,22,1.91,RU,1707279714
398,kharsia,21.9667,83.1167,24.33,52,0,1.5,IN,1707279714
399,nezhinka,51.7676,55.3694,-5.91,93,100,7.15,RU,1707279715
400,jinghong,21.991,100.7341,29.07,26,0,0.62,CN,1707279715
401,karratha,-20.7377,116.8463,33.94,38,100,5.3,AU,1707279715
402,katabu,-4.9333,122.5167,31.03,60,99,2.81,ID,1707279716
403,salinas,36.6777,-121.6555,12.05,81,100,3.09,US,1707279468
404,keffi,8.8486,7.8736,22.97,24,79,2.11,NG,1707279716
405,mariental,-24.6333,17.9667,25.68,31,98,4.94,NA,1707279717
406,smidovich,48.6,133.8167,-18.4,89,62,2.76,RU,1707279718
407,kladanj,44.2264,18.6914,-3.16,90,100,2.59,BA,1707279718
408,piracanjuba,-17.3028,-49.0167,19.83,95,98,1.59,BR,1707279719
409,mana,5.6592,-53.7767,25.23,89,2,3.58,GF,1707279719
410,luderitz,-26.6481,15.1594,18.32,82,55,5.83,NA,1707279720
411,darlowo,54.421,16.4107,4.09,84,100,11.95,PL,1707279720
412,bel ombre,-4.6167,55.4167,29.91,70,20,3.09,SC,1707279721
413,nzerekore,7.7562,-8.8179,18.29,34,0,0.5,GN,1707279722
414,archbald,41.4948,-75.5369,-0.83,77,12,0.72,US,1707279722
415,hammerfest,70.6634,23.6821,-5.75,86,100,3.09,NO,1707279723
416,sur,22.5667,59.5289,22.47,59,100,4.3,OM,1707279724
417,gebeit,21.0667,36.3167,10.07,80,34,1.88,SD,1707279724
418,chibougamau,49.9168,-74.3659,-5.21,80,100,3.09,CA,1707279725
419,la palma,33.8464,-118.0467,11.29,95,75,2.06,US,1707279726
420,zhaoyuan,37.3592,120.3964,0.32,52,3,4.75,CN,1707279726
421,la sarre,48.8002,-79.1996,-0.39,96,100,3.2,CA,1707279496
422,bontang,0.1333,117.5,28.51,75,80,1.69,ID,1707279727
423,vila franca do campo,37.7167,-25.4333,17.23,92,100,9.04,PT,1707279728
424,capo d'orlando,38.1435,14.7305,15.27,37,100,2.46,IT,1707279729
425,fruita,39.1589,-108.729,9.64,70,100,7.2,US,1707279709
426,sorong,-0.8833,131.25,27.96,73,100,2.02,ID,1707279730
427,el hamma,33.8915,9.7963,9.62,48,92,6.13,TN,1707279732
428,dongtai,32.8523,120.3095,5.55,56,82,4.47,CN,1707279732
429,mareeba,-17.0,145.4333,34.69,58,38,2.2,AU,1707279733
430,bom jesus,-9.0744,-44.3586,23.62,71,81,0.49,BR,1707279733
431,weno,7.4515,151.8468,29.97,66,20,5.14,FM,1707279734
432,zhongxiang,31.1661,112.5831,4.6,59,88,3.62,CN,1707279735
433,shepherdsville,37.9884,-85.7158,3.92,89,2,1.63,US,1707279735
434,san bernardo del viento,9.3533,-75.9524,27.27,73,34,7.52,CO,1707279736
435,kapuskasing,49.4169,-82.4331,2.05,93,100,1.54,CA,1707279736
436,el granada,37.5027,-122.4694,12.1,83,100,6.69,US,1707279737
437,chipata,-13.6333,32.65,17.41,97,73,1.09,ZM,1707279738
438,nabire,-3.3667,135.4833,25.99,85,100,1.7,ID,1707279738
439,abeche,13.8292,20.8324,16.98,23,100,4.82,TD,1707279710
440,cienaga de oro,8.8744,-75.6203,25.75,83,75,4.06,CO,1707279741
441,ravar,31.2656,56.8055,7.49,20,0,1.6,IR,1707279742
442,zheleznodorozhnyy,55.7503,38.0042,-7.77,100,97,1.57,RU,1707279743
443,nyandoma,61.669,40.1991,-27.69,100,100,1.38,RU,1707279745
444,mizdah,31.4451,12.9801,10.99,41,37,2.22,LY,1707279746
445,sechura,-5.5569,-80.8222,26.77,66,67,5.56,PE,1707279746
446,sharypovo,55.5403,89.2008,-4.86,81,48,1.34,RU,1707279748
447,jaca,42.569,-0.5499,5.02,59,1,1.87,ES,1707279749
448,kingston,17.997,-76.7936,23.53,72,20,7.72,JM,1707279512
449,praia da vitoria,38.7333,-27.0667,17.14,82,20,5.57,PT,1707279750
450,russellville,35.2784,-93.1338,7.21,75,0,0.0,US,1707279596
451,oguz,41.0708,47.4583,-1.09,93,98,2.41,AZ,1707279751
452,kushiro,42.975,144.3747,-2.47,59,40,0.51,JP,1707279752
453,puerto cabezas,14.0351,-83.3888,21.83,66,15,7.01,NI,1707279717
454,geraldton,-28.7667,114.6,38.23,10,0,4.12,AU,1707279753
455,yingkou,40.6648,122.2283,-5.65,48,0,4.02,CN,1707279754
456,mabaruma,8.2,-59.7833,25.17,92,20,2.11,GY,1707279755
457,buulobarde,3.8538,45.5674,24.75,81,54,5.66,SO,1707279755
458,lincoln,40.8,-96.667,8.96,72,0,5.66,US,1707279756
459,akureyri,65.6835,-18.0878,-3.04,86,100,2.57,IS,1707279757
460,la passe,45.5549,-0.8967,10.55,91,98,5.5,FR,1707279758
461,saipan,15.1355,145.701,28.39,57,100,7.72,MP,1707279759
462,gaalkacyo,6.7697,47.4308,22.27,75,84,5.5,SO,1707279759
463,nadym,65.5333,72.5167,-14.49,97,96,4.54,RU,1707279759
464,mathis,28.0945,-97.828,12.67,92,85,3.05,US,1707279760
465,malindi,-3.2175,40.1191,27.09,83,75,0.0,KE,1707279760
466,businga,3.3333,20.8833,20.4,47,11,1.18,CD,1707279761
467,pacific grove,36.6177,-121.9166,11.82,77,100,2.68,US,1707279762
468,marsa alam,25.0757,34.8918,17.39,69,0,5.24,EG,1707279762
469,summerlin south,36.1027,-115.3811,6.37,89,100,2.89,US,1707279763
470,likasi,-10.9814,26.7333,17.02,97,98,1.53,CD,1707279764
471,nefta,33.8731,7.8777,10.14,48,59,3.66,TN,1707279766
472,mazatlan,23.2167,-106.4167,23.28,75,0,0.89,MX,1707279766
473,castillos,-34.1667,-53.8333,19.61,82,1,4.0,UY,1707279767
474,roma,43.2128,-75.4557,-1.85,82,57,0.62,US,1707279767
475,port douglas,-16.4833,145.4667,30.09,70,84,3.29,AU,1707279768
476,kisangani,0.5167,25.2,24.06,52,98,0.72,CD,1707279768
477,sisimiut,66.9395,-53.6735,-4.38,75,100,11.69,GL,1707279769
478,zhangye,38.9342,100.4517,-4.0,60,100,0.76,CN,1707279769
479,camana,-16.6228,-72.7111,24.3,89,83,2.96,PE,1707279770
480,kant,27.8,79.8,13.83,45,88,5.15,IN,1707279770
481,malvan,16.0667,73.4667,28.86,43,1,2.19,IN,1707279771
482,puerto carreno,6.189,-67.4859,26.42,80,40,1.94,CO,1707279771
483,aylmer,42.7668,-80.983,-0.57,74,69,1.73,CA,1707279772
484,vryburg,-26.9566,24.7284,19.67,27,63,1.71,ZA,1707279772
485,talara,-4.5772,-81.2719,25.32,83,98,5.83,PE,1707279773
486,ak'ordat,15.5486,37.8867,17.44,69,99,1.15,ER,1707279773
487,broken hill,-31.95,141.4333,26.65,20,67,8.27,AU,1707279774
488,williams lake,52.1415,-122.1445,-3.24,100,0,0.0,CA,1707279743
489,shengli,37.4564,118.4856,3.34,34,0,2.04,CN,1707279775
490,boende,-0.2167,20.8667,22.2,75,13,0.23,CD,1707279775
491,santa ana de yacuma,-13.75,-65.4333,24.01,90,65,1.91,BO,1707279775
492,tegueste,28.5167,-16.3167,16.11,49,0,2.68,ES,1707279737
493,tot'ma,59.9747,42.7642,-32.74,100,100,1.38,RU,1707279776
494,adamovka,51.5223,59.9396,-6.78,91,100,10.3,RU,1707279777
495,sofo-birnin-gwari,11.0154,6.7804,18.62,26,44,5.82,NG,1707279778
496,kununurra,-15.7667,128.7333,35.99,52,37,2.06,AU,1707279778
497,awjilah,29.1081,21.2869,11.32,65,0,1.78,LY,1707279778
498,mananjary,-21.2167,48.3333,25.2,90,96,3.93,MG,1707279779
499,marang,5.2056,103.2059,29.95,69,100,1.0,MY,1707279779
500,umm kaddadah,13.6017,26.6876,13.41,24,2,7.09,SD,1707279780
501,chonchi,-42.6128,-73.8092,11.56,72,43,1.38,CL,1707279587
502,seven pagodas,12.6264,80.1722,25.61,72,7,1.23,IN,1707279780
503,keningau,5.3378,116.1602,30.97,62,82,0.21,MY,1707279781
504,caleta de carquin,-11.0925,-77.6267,24.47,82,11,3.9,PE,1707279781
505,paita,-5.0892,-81.1144,25.76,75,69,5.81,PE,1707279782
506,peace river,56.2501,-117.286,-6.83,79,100,2.06,CA,1707279494
507,nueva imperial,-38.7333,-72.95,17.36,98,100,1.31,CL,1707279570
508,oppdal,62.5943,9.6912,-18.58,90,36,3.19,NO,1707279784
509,princeville,45.7668,-61.2985,-0.76,92,100,1.03,CA,1707279784
510,san cristobal,7.7669,-72.225,22.1,92,90,0.89,VE,1707279785
511,dunedin,-45.8742,170.5036,17.11,66,96,0.45,NZ,1707279785
512,madona,56.8533,26.217,-4.75,94,100,5.82,LV,1707279786
513,mukalla,14.5425,49.1242,22.9,77,19,1.92,YE,1707279786
514,fort wellington,6.4,-57.6,25.28,91,16,4.47,GY,1707279787
515,maintirano,-18.0667,44.0167,26.63,86,100,3.81,MG,1707279787
516,bighapur khurd,26.35,80.6833,15.61,41,44,3.86,IN,1707279788
517,qaryat suluq,31.6682,20.2521,12.85,81,0,2.34,LY,1707279788
518,arawa,-6.2132,155.5367,29.87,80,48,2.76,PG,1707279789
519,yenakiyeve,48.2333,38.2114,2.67,98,100,3.94,UA,1707279789
520,baley,51.6,116.6333,-11.76,78,17,1.34,RU,1707279790
521,ca mau,9.1769,105.15,32.61,47,100,4.02,VN,1707279790
522,spring creek,40.7266,-115.5859,1.01,91,100,0.89,US,1707279791
523,veraval,20.9,70.3667,23.35,62,47,5.24,IN,1707279791
524,bhera,32.4832,72.9097,13.95,39,100,1.53,PK,1707279792
525,fomboni,-12.28,43.7425,29.24,77,55,6.43,KM,1707279792
526,madalena,41.2162,-8.3345,13.32,89,96,1.34,PT,1707279793
527,al mindak,20.1588,41.2834,8.78,57,56,2.55,SA,1707279794
528,urucui,-7.2294,-44.5561,25.67,68,100,0.56,BR,1707279794
529,beidaihehaibin,39.8222,119.5181,-0.84,52,0,1.1,CN,1707279796
530,sungai raya,0.7,108.9,28.32,78,100,1.94,ID,1707279796
531,kismayo,-0.3582,42.5454,27.14,86,82,6.11,SO,1707279797
532,ape,57.5393,26.6929,-6.27,90,100,4.74,LV,1707279797
533,kamiiso,41.8167,140.65,4.21,45,75,5.14,JP,1707279798
534,tamarin,-20.3256,57.3706,28.62,84,11,3.51,MU,1707279798
535,plettenberg bay,-34.0527,23.3716,19.71,84,66,1.84,ZA,1707279799
536,nola,40.922,14.5329,12.02,86,100,1.04,IT,1707279799
537,inhambane,-23.865,35.3833,22.99,94,20,0.0,MZ,1707279800
538,eyl,7.9803,49.8164,24.03,77,14,6.61,SO,1707279800
539,hasaki,35.7333,140.8333,11.27,46,73,5.34,JP,1707279801
540,dila,6.4167,38.3167,16.55,60,37,2.0,ET,1707279801
541,huarmey,-10.0681,-78.1522,24.89,81,36,3.78,PE,1707279802
542,steinkjer,64.193,11.3851,-16.48,99,20,1.57,NO,1707279803
543,riberalta,-10.9833,-66.1,23.58,89,11,0.12,BO,1707279803
544,zakynthos,37.7914,20.8953,10.91,79,11,1.66,GR,1707279733
545,bondo,3.8146,23.6866,18.73,39,21,1.46,CD,1707279804
546,inebolu,41.9747,33.7608,11.44,51,18,4.68,TR,1707279804
547,bonthe,7.5264,-12.505,25.07,93,1,1.05,SL,1707279787
548,pangody,65.85,74.4859,-15.41,98,92,3.47,RU,1707279805
549,san juan de miraflores,-12.1629,-76.9635,27.32,65,7,3.2,PE,1707279806
550,ta`u,-14.2336,-169.5144,28.41,82,100,11.69,AS,1707279806
551,tindouf,27.6711,-8.1474,8.25,39,0,2.06,DZ,1707279781
552,pimentel,-6.8367,-79.9342,26.16,83,75,4.63,PE,1707279807
553,fort mcmurray,56.7268,-111.381,-12.23,78,100,4.63,CA,1707279807
554,makarov,48.6333,142.8,-8.36,58,5,2.23,RU,1707279808
555,dompu,-8.5356,118.4622,33.54,48,70,2.18,ID,1707279808
556,puerto princesa,9.7392,118.7353,28.99,74,100,6.17,PH,1707279808
557,fastovetskaya,45.9189,40.1589,7.03,87,100,6.98,RU,1707279809
558,enumclaw,47.2043,-121.9915,5.69,95,100,0.89,US,1707279809
559,popondetta,-8.7537,148.2534,32.08,59,100,2.98,PG,1707279810
560,sarande,39.8756,20.0053,10.98,90,84,1.32,AL,1707279810
561,lucelia,-21.7203,-51.0189,21.89,82,100,2.89,BR,1707279811
562,north bend,43.4065,-124.2243,7.92,100,100,3.09,US,1707279812
563,arno,60.1167,18.6333,-5.12,72,100,5.54,SE,1707279812
564,betong,5.7743,101.0723,32.0,47,78,0.54,TH,1707279813
565,pantai remis,4.4557,100.6288,30.01,70,100,1.71,MY,1707279813
566,laguna,38.421,-121.4238,11.29,82,0,2.57,US,1707279813
567,suwayr,30.1171,40.3893,6.52,69,4,0.88,SA,1707279814
568,island harbour,50.724,-1.2758,10.57,93,100,3.13,GB,1707279814
569,actopan,20.2667,-98.9333,10.13,66,0,1.48,MX,1707279815
570,tokar,18.4254,37.729,20.26,63,79,4.27,SD,1707279815
571,cockburn town,21.4612,-71.1419,24.36,64,84,12.53,TC,1707279809
572,xiaoshi,41.2971,124.1209,-4.92,56,3,1.81,CN,1707279817
573,kayangel,8.0823,134.7173,27.62,71,93,9.17,PW,1707279817
574,port macquarie,-31.4333,152.9167,23.83,83,100,5.9,AU,1707279818
575,summerland,49.5998,-119.6691,1.72,96,100,0.0,CA,1707279818
576,hue,16.4667,107.6,27.06,78,75,1.03,VN,1707279819
577,al khums,32.6486,14.2619,16.26,46,98,3.52,LY,1707279820
578,aioun,16.6614,-9.6149,19.53,12,0,6.05,MR,1707279820
579,olyokminsk,60.3736,120.4264,-10.91,87,100,3.01,RU,1707279820
580,tanjungtiram,4.0613,98.3699,30.21,60,79,1.64,ID,1707279821
581,mahina,-17.5065,-149.489,28.87,84,75,6.17,PF,1707279821
582,sandy,40.572,-111.8606,7.53,86,100,6.26,US,1707279821
583,damghan,36.1683,54.348,2.9,60,0,1.02,IR,1707279822
584,dalbandin,28.8947,64.4101,13.84,25,0,1.42,PK,1707279822
585,shurugwi,-19.6702,30.0059,18.75,70,62,2.37,ZW,1707279822
586,kudahuvadhoo,2.6708,72.8944,27.65,77,43,5.46,MV,1707279823
587,south hedland,-20.4089,118.5983,39.96,11,83,5.66,AU,1707279823
588,narok,-1.0783,35.8601,13.41,72,3,1.2,KE,1707279823
