City_ID,City,Lat,Lng,Max Temp,Humidity,Cloudiness,Wind Speed,Country,Date
0,grytviken,-54.2811,-36.5092,7.53,75,100,3.99,GS,1707371638
1,blackmans bay,-43.0167,147.3167,21.07,65,3,5.75,AU,1707371644
2,punta arenas,-53.15,-70.9167,9.06,66,0,13.38,CL,1707371654
3,wailua homesteads,22.0669,-159.378,22.44,77,20,8.23,US,1707371630
4,port-aux-francais,-49.35,70.2167,4.4,70,85,11.97,TF,1707371640
5,kodiak,57.79,-152.4072,0.73,80,0,3.09,US,1707371473
6,labuan,5.2767,115.2417,29.2,83,40,0.0,MY,1707371710
7,invercargill,-46.4,168.35,14.45,74,50,7.6,NZ,1707371651
8,port mathurin,-19.6833,63.4167,26.96,77,86,9.44,MU,1707371668
9,bethel,41.3712,-73.414,1.48,71,0,0.0,US,1707371358
10,talnakh,69.4865,88.3972,-25.02,88,24,1.99,RU,1707371678
11,keflavik,64.0049,-22.5624,-4.76,68,0,6.17,IS,1707371644
12,waitangi,-43.9535,-176.5597,18.23,84,100,0.45,NZ,1707371647
13,longyearbyen,78.2186,15.6401,-8.09,73,75,6.69,SJ,1707371712
14,victorica,-36.2151,-65.4359,22.27,77,61,5.63,AR,1707371713
15,port elizabeth,-33.918,25.5701,22.4,70,0,3.6,ZA,1707371511
16,bir el ater,34.7449,8.0602,7.26,52,1,2.18,DZ,1707371713
17,adamstown,-25.066,-130.1015,21.5,88,100,4.57,PN,1707371638
18,bredasdorp,-34.5322,20.0403,19.88,61,53,4.67,ZA,1707371649
19,ciudad lazaro cardenas,17.9583,-102.2,24.25,81,33,2.07,MX,1707371714
20,arraial do cabo,-22.9661,-42.0278,25.36,88,100,2.57,BR,1707371714
21,stanley,54.868,-1.6985,-1.79,92,99,1.71,GB,1707371652
22,ribeira grande,38.5167,-28.7,15.43,91,51,8.05,PT,1707371699
23,york,40.1254,-77.0,3.28,76,0,1.54,US,1707371447
24,luorong,24.4058,109.6086,6.07,73,98,4.79,CN,1707371715
25,tabas,33.5959,56.9244,14.22,18,0,1.44,IR,1707371716
26,iqaluit,63.7506,-68.5145,-21.15,65,0,2.57,CA,1707371667
27,ketchikan,55.3422,-131.6461,1.99,74,0,1.54,US,1707371696
28,whitehorse,60.7161,-135.0538,-17.88,80,75,1.03,CA,1707371644
29,nizhnyaya salda,58.0776,60.7202,-10.64,96,97,1.88,RU,1707371685
30,papao,-17.75,-149.55,28.82,90,98,16.89,PF,1707371661
31,utrik,11.2278,169.8474,26.39,85,93,9.34,MH,1707371697
32,saipan,15.1355,145.701,28.39,65,40,7.2,MP,1707371671
33,edinburgh of the seven seas,-37.0676,-12.3116,17.05,69,97,2.57,SH,1707371652
34,ussel,45.55,2.3167,7.16,97,100,2.28,FR,1707371718
35,constantia,44.1833,28.65,5.38,75,100,3.63,RO,1707371718
36,monroeville,40.4212,-79.7881,3.5,70,36,1.34,US,1707371718
37,mil'kovo,55.6078,37.7956,-12.73,96,81,3.88,RU,1707371719
38,coquimbo,-29.9533,-71.3436,18.85,94,100,1.54,CL,1707371419
39,uturoa,-16.7333,-151.4333,28.39,84,86,10.95,PF,1707371647
40,vetlanda,57.4289,15.0776,-4.19,95,100,1.25,SE,1707371720
41,okha,53.5739,142.9478,-16.92,91,96,4.57,RU,1707371720
42,hawaiian paradise park,19.5933,-154.9731,20.73,91,40,1.54,US,1707371720
43,minas de marcona,-15.2119,-75.1103,19.54,92,100,3.29,PE,1707371687
44,itoman,26.1247,127.6694,21.43,70,75,7.72,JP,1707371721
45,port alfred,-33.5906,26.891,21.77,76,8,2.68,ZA,1707371721
46,lebu,-37.6167,-73.65,13.81,79,98,7.92,CL,1707371722
47,yellowknife,62.456,-114.3525,-16.44,84,100,3.09,CA,1707371648
48,fortuna,40.5982,-124.1573,4.81,96,75,0.0,US,1707371722
49,nemuro,43.3236,145.575,-2.09,75,69,5.08,JP,1707371677
50,mammoth lakes,37.6485,-118.9721,-4.6,91,100,2.06,US,1707371723
51,puerto ayora,-0.7393,-90.3518,25.86,95,96,1.79,EC,1707371657
52,happy valley-goose bay,53.3168,-60.3315,-10.83,73,75,1.03,CA,1707371680
53,nar'yan-mar,67.6713,53.087,-13.27,95,100,4.92,RU,1707371724
54,araripina,-7.5761,-40.4983,25.2,53,94,2.37,BR,1707371724
55,kalawit,8.0667,122.5167,27.03,84,78,3.57,PH,1707371725
56,nykobing falster,54.7691,11.8743,1.16,93,82,0.89,DK,1707371725
57,kapuskasing,49.4169,-82.4331,1.0,93,100,2.57,CA,1707371698
58,lihue,21.9789,-159.3672,22.77,76,20,8.23,US,1707371624
59,anse la raye,13.9333,-61.0333,26.8,86,49,5.51,LC,1707371726
60,klyuchi,52.2667,79.1667,-1.94,78,15,5.91,RU,1707371688
61,kedougou,12.5579,-12.1743,25.6,14,100,1.95,SN,1707371726
62,north tonawanda,43.0387,-78.8642,1.25,75,0,2.06,US,1707371511
63,kingston,17.997,-76.7936,23.53,69,20,4.12,JM,1707371044
64,atafu village,-8.5421,-172.5159,28.53,80,100,6.44,TK,1707371631
65,kokshetau,53.2775,69.3883,-7.82,86,100,11.0,KZ,1707371728
66,albany,42.6001,-73.9662,-1.32,76,31,0.45,US,1707371666
67,bikenibeu village,1.3673,173.1241,28.99,80,91,7.41,KI,1707371728
68,lompoc,34.6391,-120.4579,8.94,78,100,7.6,US,1707371646
69,hermanus,-34.4187,19.2345,19.33,71,70,4.21,ZA,1707371729
70,afaahiti,-17.75,-149.2833,27.93,86,100,14.42,PF,1707371681
71,hithadhoo,-0.6,73.0833,27.7,76,90,3.76,MV,1707371692
72,nizhneudinsk,54.9076,99.0276,-5.95,80,43,1.47,RU,1707371730
73,leava,-14.3,-178.1667,29.27,80,99,8.51,WF,1707371730
74,kailua-kona,19.6406,-155.9956,24.98,81,75,2.06,US,1707371730
75,yeed,4.55,43.0333,28.76,50,5,8.94,SO,1707371731
76,taulaga,-11.0553,-171.0883,27.65,87,100,11.56,AS,1707371731
77,isafjordur,66.0755,-23.124,-8.18,75,2,1.73,IS,1707371645
78,remire-montjoly,4.9167,-52.2667,27.02,83,75,2.06,GF,1707371732
79,san pedro de jujuy,-24.2313,-64.8661,25.05,64,97,0.87,AR,1707371732
80,palikir - national government center,6.9248,158.1611,30.41,66,100,2.57,FM,1707371732
81,yerba buena,-26.8167,-65.3167,24.63,69,100,5.11,AR,1707371476
82,sarupathar,26.1984,93.8094,22.12,55,6,1.84,IN,1707371733
83,margaret river,-33.95,115.0667,25.82,47,0,3.19,AU,1707371655
84,divnogorsk,55.9594,92.3619,-11.73,79,90,1.81,RU,1707371670
85,kosh-agach,50.0,88.6667,-15.94,81,89,1.79,RU,1707371734
86,pundong,-7.9522,110.3486,29.96,66,28,3.3,ID,1707371734
87,iskateley,67.6803,53.1512,-13.32,95,100,4.92,RU,1707371647
88,timaru,-44.4,171.25,18.93,42,32,3.58,NZ,1707371562
89,west island,-12.1568,96.8225,27.99,89,75,5.14,CC,1707371617
90,badagry,6.4167,2.8833,23.3,62,14,0.42,NG,1707371735
91,big bear city,34.2611,-116.845,-1.06,94,100,3.6,US,1707371735
92,cananeia,-25.0147,-47.9267,23.82,91,67,0.37,BR,1707371736
93,severo-yeniseyskiy,60.3725,93.0408,-5.47,94,99,0.69,RU,1707371736
94,pahrump,36.2083,-115.9839,8.03,74,99,5.81,US,1707371736
95,laascaanood,8.4774,47.3597,22.25,63,59,8.28,SO,1707371737
96,aykhal,66.0,111.5,-23.0,96,100,2.05,RU,1707371688
97,antsiranana,-12.2787,49.2917,28.93,75,76,2.69,MG,1707371624
98,san fernando,15.0286,120.6898,31.85,33,16,1.27,PH,1707371738
99,lethem,3.3803,-59.7968,28.18,57,49,4.02,GY,1707371671
100,college,64.8569,-147.8028,-21.62,76,40,0.0,US,1707371665
101,hadibu,12.65,54.0333,26.67,66,99,6.58,YE,1707371738
102,bilibino,68.0546,166.4372,-33.56,99,99,0.31,RU,1707371646
103,ushuaia,-54.8,-68.3,7.81,71,75,2.06,AR,1707371739
104,queenstown,-31.8976,26.8753,17.37,72,34,1.42,ZA,1707371739
105,aberdeen,57.1437,-2.0981,-4.73,86,8,1.54,GB,1707371739
106,rikaze,29.25,88.8833,5.15,8,0,3.19,CN,1707371740
107,dudinka,69.4058,86.1778,-26.85,97,25,1.79,RU,1707371619
108,chibougamau,49.9168,-74.3659,-3.21,93,100,1.54,CA,1707371740
109,wladyslawowo,54.7909,18.4009,-1.7,76,71,4.03,PL,1707371740
110,usogorsk,63.4106,48.6872,-11.3,95,100,3.86,RU,1707371741
111,papatowai,-46.5619,169.4708,12.43,79,30,6.71,NZ,1707371604
112,broome,42.2506,-75.833,2.87,78,58,0.99,US,1707371741
113,ulundi,-28.3352,31.4162,21.76,89,97,1.14,ZA,1707371742
114,ismailia,30.6043,32.2723,9.04,81,40,2.57,EG,1707371742
115,hamilton,39.1834,-84.5333,9.47,56,0,4.12,US,1707371393
116,prairie grove,35.9759,-94.3177,14.01,47,100,1.34,US,1707371743
117,thompson,55.7435,-97.8558,-14.91,85,100,4.12,CA,1707371611
118,mount gambier,-37.8333,140.7667,20.58,49,0,5.46,AU,1707371667
119,haiku-pauwela,20.9219,-156.3051,22.25,70,20,7.2,US,1707371689
120,el calafate,-50.3408,-72.2768,8.16,79,68,5.79,AR,1707371682
121,siaya,0.0612,34.2882,23.26,56,2,2.3,KE,1707371744
122,hirara,24.8,125.2833,20.15,77,75,8.75,JP,1707371487
123,bangui,4.3612,18.555,19.1,82,32,1.03,CF,1707371622
124,anadyr,64.75,177.4833,-15.72,84,100,8.0,RU,1707371613
125,olonkinbyen,70.9221,-8.7187,-2.96,50,80,6.86,SJ,1707371649
126,puerto natales,-51.7236,-72.4875,8.92,74,86,7.3,CL,1707371643
127,lauro de freitas,-12.8944,-38.3272,27.01,83,40,1.03,BR,1707371459
128,tiksi,71.6872,128.8694,-21.15,100,100,2.25,RU,1707371675
129,udachny,66.4167,112.4,-25.31,75,99,1.44,RU,1707371657
130,fale old settlement,-9.3852,-171.2468,27.91,83,98,7.75,TK,1707371746
131,nadym,65.5333,72.5167,-6.89,86,100,7.83,RU,1707371747
132,tazovsky,67.4667,78.7,-6.11,95,100,5.67,RU,1707371689
133,marica,-22.9194,-42.8186,26.95,90,100,1.19,BR,1707371636
134,sidi akkacha,36.4647,1.3026,9.16,51,6,3.39,DZ,1707371747
135,fukushima,37.75,140.4678,9.64,56,81,3.35,JP,1707371569
136,pandan,14.0453,124.1694,27.8,71,9,1.98,PH,1707371697
137,acapulco de juarez,16.8634,-99.8901,25.9,78,0,1.54,MX,1707371460
138,boyolangu,-8.1181,111.8935,29.79,70,69,2.79,ID,1707371749
139,tolanaro,-25.0319,46.9987,27.6,72,5,1.84,MG,1707371749
140,mahajanga,-15.7167,46.3167,28.67,72,60,1.38,MG,1707371749
141,sao joao da barra,-21.6403,-41.0511,24.61,89,100,2.09,BR,1707371750
142,haslev,55.3235,11.9639,0.56,85,63,5.22,DK,1707371750
143,ilulissat,69.2167,-51.1,-11.99,72,100,4.12,GL,1707371612
144,kirensk,57.7853,108.1119,-5.04,89,100,1.23,RU,1707371750
145,qaqortoq,60.7167,-46.0333,-5.63,81,100,4.46,GL,1707371619
146,colonia,50.9333,6.95,4.97,92,100,1.03,DE,1707371501
147,berdigestyakh,62.0989,126.6992,-28.01,94,99,2.26,RU,1707371751
148,jamestown,42.097,-79.2353,2.8,66,0,1.54,US,1707371596
149,brookings,44.3114,-96.7984,8.43,85,75,7.72,US,1707371559
150,las palmas de gran canaria,28.0997,-15.4134,18.21,55,0,2.57,ES,1707371752
151,kotlas,61.2611,46.6556,-14.41,96,100,2.68,RU,1707371752
152,belo sur tsiribihina,-19.7,44.55,28.28,77,78,2.25,MG,1707371752
153,north battleford,52.7834,-108.2847,-5.89,86,100,2.06,CA,1707371753
154,chizhou,30.6578,117.4831,6.12,63,33,3.05,CN,1707371753
155,ishigaki,24.3448,124.1572,18.07,94,75,4.63,JP,1707371754
156,palmer,42.1584,-72.3287,0.9,76,100,0.0,US,1707371664
157,ludvika,60.1496,15.1878,-10.11,84,7,0.76,SE,1707371754
158,siocon,7.7061,122.1353,27.9,82,78,2.64,PH,1707371754
159,luderitz,-26.6481,15.1594,19.48,64,96,6.26,NA,1707371755
160,lorengau,-2.0226,147.2712,28.12,79,100,7.79,PG,1707371755
161,ovalle,-30.5983,-71.2003,21.7,72,77,1.18,CL,1707371755
162,avarua,-21.2078,-159.775,27.03,78,20,7.2,CK,1707371652
163,bodaybo,57.8506,114.1933,-9.22,90,100,0.54,RU,1707371756
164,vorgashor,67.5833,63.95,-5.0,85,100,6.18,RU,1707371668
165,daru,-9.0763,143.2092,29.23,77,100,2.59,PG,1707371636
166,smithers,54.7804,-127.1743,-4.82,93,75,1.03,CA,1707371757
167,newman,37.3138,-121.0208,7.38,93,79,1.34,US,1707371681
168,shimoda,34.6667,138.95,10.2,68,74,1.91,JP,1707371757
169,wotho,10.1657,166.0102,26.81,71,82,9.38,MH,1707371757
170,marshall,34.3834,-86.3333,11.84,60,0,2.57,US,1707371607
171,la sarre,48.8002,-79.1996,0.47,93,100,2.61,CA,1707371758
172,yeppoon,-23.1333,150.7333,29.88,60,24,9.07,AU,1707371759
173,balabac,7.9868,117.0645,28.33,72,58,4.43,PH,1707371759
174,kill devil hills,36.0307,-75.676,6.1,79,100,3.09,US,1707371759
175,goure,13.9835,10.2704,13.14,26,1,3.91,NE,1707371759
176,petropavlovsk-kamchatsky,53.0452,158.6483,-4.67,80,75,1.0,RU,1707371660
177,tura,25.5198,90.2201,22.19,22,2,2.64,IN,1707371693
178,cidreira,-30.1811,-50.2056,23.71,92,96,4.3,BR,1707371760
179,rutland,43.6167,-73.0162,-1.55,88,20,0.74,US,1707371162
180,surat,21.1667,72.8333,26.99,41,37,5.66,IN,1707371735
181,porto novo,6.4965,2.6036,23.9,57,9,0.92,BJ,1707371761
182,kristiansund,63.1115,7.732,-3.64,86,75,2.06,NO,1707371762
183,bei'an,24.5399,109.533,5.66,73,99,4.89,CN,1707371762
184,valparaiso,-33.0393,-71.6273,20.82,75,100,3.09,CL,1707371762
185,gutierrez zamora,20.45,-97.0833,17.65,90,0,3.43,MX,1707371763
186,ghat,24.9647,10.1728,11.02,25,0,2.29,LY,1707371763
187,emkhomazi,-30.2067,30.7978,23.37,79,100,3.09,ZA,1707371763
188,cody,44.5263,-109.0565,-0.76,92,100,4.63,US,1707371763
189,palu,-0.8917,119.8707,30.35,73,98,2.22,ID,1707371764
190,naliya,23.2667,68.8333,25.21,32,98,7.71,IN,1707371764
191,freetown,8.484,-13.2299,26.84,78,68,3.6,SL,1707371765
192,lillesand,58.2488,8.3778,-3.95,86,75,3.6,NO,1707371765
193,rongelap,11.1635,166.8941,26.42,77,100,8.48,MH,1707371765
194,birni n konni,13.7956,5.2553,15.45,20,1,4.46,NE,1707371765
195,cherlak,54.155,74.8055,-5.29,85,74,8.23,RU,1707371766
196,saint-louis,16.3333,-15.0,22.96,11,1,4.46,SN,1707371766
197,beoumi,7.6736,-5.5764,20.87,27,6,1.5,CI,1707371767
198,moapa valley,36.5805,-114.4703,8.64,56,55,4.3,US,1707371767
199,touros,-5.1989,-35.4608,26.6,81,41,4.65,BR,1707371645
200,enewetak,11.3474,162.3373,26.72,82,100,7.54,MH,1707371605
201,susuman,62.7833,148.1667,-31.59,100,92,0.85,RU,1707371667
202,faya-largeau,17.9257,19.1043,13.98,30,16,6.39,TD,1707371768
203,portel,-1.9356,-50.8211,24.33,93,67,1.76,BR,1707371768
204,juneau,58.3019,-134.4197,-4.21,97,40,1.54,US,1707371768
205,deqen,29.9618,90.7188,3.19,8,0,6.75,CN,1707371769
206,westport,41.1415,-73.3579,2.19,75,0,0.45,US,1707371769
207,sur,22.5667,59.5289,23.03,63,98,4.21,OM,1707371769
208,savanna-la-mar,18.219,-78.1332,23.97,75,5,4.16,JM,1707371770
209,nantucket,41.2835,-70.0995,0.03,93,0,6.03,US,1707371647
210,lazaro cardenas,17.9583,-102.2,24.25,81,33,2.07,MX,1707371770
211,mendi,-6.1761,143.6513,17.12,90,100,1.66,PG,1707371771
212,east london,-33.0153,27.9116,20.52,68,0,3.6,ZA,1707371670
213,christchurch,-43.5333,172.6333,18.3,81,75,3.09,NZ,1707371102
214,aasiaat,68.7098,-52.8699,-18.96,96,100,3.41,GL,1707371772
215,podporozh'ye,60.9112,34.1706,-22.64,99,86,1.98,RU,1707371772
216,swakopmund,-22.6833,14.5333,18.47,86,98,1.82,NA,1707371772
217,port macquarie,-31.4333,152.9167,24.38,69,99,6.42,AU,1707371567
218,brisas de zicatela,15.8369,-97.0419,23.47,82,4,1.47,MX,1707371684
219,sao gabriel da cachoeira,-0.1303,-67.0892,23.19,98,95,0.44,BR,1707371773
220,fraserburgh,57.6874,-2.0184,2.02,67,12,4.45,GB,1707371774
221,birobidzhan,48.8,132.95,-6.51,71,11,2.66,RU,1707371774
222,zyrya,40.3661,50.2917,16.05,64,5,13.46,AZ,1707371774
223,mossel bay,-34.1831,22.146,20.96,76,43,4.22,ZA,1707371774
224,wilmore,37.862,-84.6616,10.21,50,91,3.09,US,1707371729
225,souillac,-20.5167,57.5167,28.53,78,40,5.66,MU,1707371775
226,st. john's,47.5649,-52.7093,-1.79,92,100,7.2,CA,1707371681
227,island harbour,50.724,-1.2758,9.15,95,100,2.68,GB,1707371776
228,hun,29.1268,15.9477,11.08,37,0,2.55,LY,1707371776
229,sos'va,59.1766,61.8558,-13.3,98,85,1.79,RU,1707371776
230,murghob,38.1702,73.9667,-16.92,65,4,1.71,TJ,1707371777
231,miagao,10.6442,122.2352,29.55,65,32,1.82,PH,1707371777
232,sitka,57.0531,-135.33,0.94,80,0,2.57,US,1707371777
233,ouesso,1.6136,16.0517,21.77,49,76,0.75,CG,1707371778
234,semirara,12.0697,121.3986,26.64,77,6,6.42,PH,1707371778
235,baoding,38.8511,115.4903,4.22,43,95,0.87,CN,1707371779
236,ilhabela,-23.7781,-45.3581,23.83,91,61,1.24,BR,1707371779
237,kerema,-7.9631,145.7785,28.45,73,98,2.38,PG,1707371779
238,ubari,26.5921,12.7805,10.03,42,1,1.8,LY,1707371779
239,jiwani,25.05,61.7417,22.2,41,45,0.37,PK,1707371780
240,santiago de cao,-7.9589,-79.2392,25.07,78,75,3.6,PE,1707371780
241,tashtagol,52.7657,87.8894,-4.15,86,100,0.45,RU,1707371780
242,hilo,19.7297,-155.09,20.9,90,40,1.54,US,1707371559
243,kasama,-10.2129,31.1808,19.68,88,49,0.59,ZM,1707371781
244,dhuusamarreeb,5.535,46.3861,26.86,56,77,7.83,SO,1707371781
245,labuan bajo,-8.4964,119.8877,29.27,73,84,4.11,ID,1707371782
246,camana,-16.6228,-72.7111,24.13,89,66,0.99,PE,1707371782
247,yakeshi,49.2833,120.7333,-15.33,88,99,3.39,CN,1707371782
248,chonchi,-42.6128,-73.8092,8.56,97,34,0.85,CL,1707371688
249,barwala,29.3833,75.9167,19.34,18,22,6.97,IN,1707371783
250,vilyuchinsk,52.9306,158.4028,-3.85,85,100,0.7,RU,1707371783
251,tsiombe,-25.3,45.4833,27.36,65,3,1.69,MG,1707371616
252,litayan,7.3358,124.0347,28.21,73,92,3.75,PH,1707371783
253,badger,64.8,-147.5333,-21.67,79,40,0.0,US,1707371694
254,laishevo,55.4046,49.5504,-9.88,97,100,3.48,RU,1707371784
255,port lincoln,-34.7333,135.8667,20.66,57,3,6.63,AU,1707371717
256,atherton,53.5237,-2.4935,3.36,82,100,2.24,GB,1707371785
257,dobrush,52.4089,31.3237,-2.78,71,30,3.27,BY,1707371785
258,stephenville,32.2207,-98.2023,15.1,77,100,3.09,US,1707371785
259,ulladulla,-35.35,150.4667,21.49,52,62,3.44,AU,1707371675
260,gadzhiyevo,69.2551,33.3362,-24.51,100,93,3.43,RU,1707371679
261,sisimiut,66.9395,-53.6735,-13.51,93,100,9.61,GL,1707371786
262,quellon,-43.1167,-73.6167,9.09,89,20,1.58,CL,1707371786
263,tual,-5.6667,132.75,27.96,78,100,8.19,ID,1707371677
264,saldanha,-33.0117,17.9442,16.03,73,10,3.79,ZA,1707371787
265,bel ombre,-4.6167,55.4167,28.91,79,40,5.14,SC,1707371656
266,kulmbach,50.1,11.45,4.08,94,100,1.07,DE,1707371787
267,kuta,-8.7233,115.1723,30.0,79,20,4.12,ID,1707371788
268,ete,7.05,7.45,20.62,28,7,1.92,NG,1707371788
269,new norfolk,-42.7826,147.0587,21.72,38,2,2.48,AU,1707371789
270,port saint john's,-31.6229,29.5448,23.41,56,15,1.49,ZA,1707371789
271,tuscaloosa,33.2098,-87.5692,11.88,49,0,0.0,US,1707371734
272,harper,4.375,-7.7169,25.77,85,6,1.49,LR,1707371789
273,wau,7.7029,27.9953,24.45,19,73,3.32,SS,1707371790
274,mount pearl,47.5166,-52.7813,-2.25,92,100,7.2,CA,1707371790
275,nyagan,62.1406,65.3936,-5.83,95,100,2.66,RU,1707371791
276,avanigadda,16.0215,80.9181,29.41,41,36,1.64,IN,1707371791
277,rio grande,-32.035,-52.0986,22.19,86,51,4.5,BR,1707371591
278,al lagowa,11.4,29.1333,20.65,16,2,4.34,SD,1707371791
279,plettenberg bay,-34.0527,23.3716,19.85,77,75,2.18,ZA,1707371792
280,novo aripuana,-5.1206,-60.3797,25.4,84,85,0.45,BR,1707371792
281,san antonio de pale,-1.4014,5.6325,27.79,79,59,3.52,GQ,1707371792
282,gornozavodsk,58.3758,58.3211,-11.19,96,91,2.7,RU,1707371793
283,calvinia,-31.4707,19.776,15.23,64,0,1.83,ZA,1707371793
284,pointe michel,15.25,-61.3833,26.58,81,94,5.44,DM,1707371793
285,iquitos,-3.7481,-73.2472,25.02,94,75,0.51,PE,1707371573
286,geraldton,-28.7667,114.6,44.23,7,0,4.12,AU,1707371794
287,nolinsk,57.5596,49.9363,-12.74,96,100,1.03,RU,1707371794
288,kralendijk,12.15,-68.2667,26.99,83,99,3.09,BQ,1707371539
289,glace bay,46.1969,-59.957,-1.79,88,100,5.66,CA,1707371660
290,baoqing,46.3317,132.2111,-5.41,76,11,4.01,CN,1707371795
291,ust-nera,64.5667,143.2,-26.27,99,100,0.66,RU,1707371683
292,dryden,49.7833,-92.7503,2.16,93,100,4.63,CA,1707371795
293,alvorada,-12.48,-49.1247,23.29,86,80,1.19,BR,1707371628
294,morehead city,34.7229,-76.726,5.55,88,0,3.09,US,1707371796
295,olyokminsk,60.3736,120.4264,-23.12,92,97,0.44,RU,1707371796
296,firuzabad,28.8438,52.5707,9.35,38,0,0.09,IR,1707371797
297,al jawf,29.5,38.75,11.42,47,0,4.59,SA,1707371797
298,puerto deseado,-47.7503,-65.8938,14.84,41,4,11.15,AR,1707371797
299,black point,-34.6187,137.8972,22.39,57,0,8.13,AU,1707371798
300,yemetsk,63.4721,41.7941,-18.68,92,98,4.62,RU,1707371798
301,burabay,53.0838,70.3138,-6.85,84,100,9.38,KZ,1707371798
302,antalaha,-14.9003,50.2788,28.27,75,95,0.16,MG,1707371798
303,carbonear,47.7332,-53.2148,-1.53,90,62,6.3,CA,1707371799
304,nueva palestina,15.8,-92.75,15.56,83,0,1.25,MX,1707371799
305,tlahualilo de zaragoza,26.1167,-103.45,19.35,21,99,4.31,MX,1707371799
306,shira,54.4911,89.9531,-10.1,86,70,1.15,RU,1707371800
307,abanilla,38.2054,-1.0415,13.24,67,53,2.06,ES,1707371800
308,kununurra,-15.7667,128.7333,32.99,55,75,7.72,AU,1707371800
309,merizo village,13.2658,144.6691,30.31,73,93,6.39,GU,1707371801
310,oyem,1.5995,11.5793,20.69,95,36,1.07,GA,1707371801
311,namibe,-15.1961,12.1522,25.66,75,98,3.1,AO,1707371801
312,thunder bay,48.4001,-89.3168,1.99,100,100,9.26,CA,1707371600
313,georgetown,5.4112,100.3354,33.97,59,20,3.09,MY,1707371663
314,vorkuta,67.5,64.0,-5.46,87,100,5.17,RU,1707371802
315,wawa,9.9022,4.4192,21.35,28,8,1.81,NG,1707371697
316,horta,38.5333,-28.6333,15.01,91,59,8.05,PT,1707371671
317,anna regina,7.2644,-58.5077,26.26,78,19,5.18,GY,1707371803
318,praia da vitoria,38.7333,-27.0667,16.14,77,20,7.96,PT,1707371803
319,kamina,-8.7386,24.9906,20.06,90,99,0.82,CD,1707371803
320,robore,-18.3333,-59.75,24.52,68,16,1.64,BO,1707371804
321,crane,31.3974,-102.3501,11.84,42,29,4.94,US,1707371634
322,naze,28.3667,129.4833,12.51,76,100,6.33,JP,1707371804
323,revelstoke,50.9832,-118.2023,3.01,87,100,2.06,CA,1707371805
324,bakchar,57.0186,82.0711,-1.98,91,100,4.23,RU,1707371805
325,jeju city,33.5097,126.5219,5.96,61,75,2.57,KR,1707371805
326,salinas,36.6777,-121.6555,9.91,85,40,6.17,US,1707371805
327,taroa,8.7058,171.2275,27.21,82,98,8.46,MH,1707371806
328,wynyard,-41.0,145.7167,18.32,60,0,3.46,AU,1707371659
329,along,28.1667,94.7667,16.95,62,100,1.5,IN,1707371806
330,sake,-1.5736,29.045,20.22,87,7,0.74,CD,1707371807
331,vila velha,-20.3297,-40.2925,24.97,97,20,1.03,BR,1707371691
332,amungan,15.3652,119.9582,28.33,66,13,4.72,PH,1707371807
333,awjilah,29.1081,21.2869,13.24,38,7,3.57,LY,1707371807
334,amarillo,35.222,-101.8313,6.25,62,0,6.69,US,1707371796
335,labrador city,52.9463,-66.9114,-9.05,92,100,1.03,CA,1707371808
336,yuzhno-kurilsk,44.0306,145.8556,-3.68,77,100,4.8,RU,1707371808
337,ghadamis,30.1337,9.5007,10.93,38,0,2.12,LY,1707371808
338,san matias,-16.3667,-58.4,24.66,80,41,1.51,BO,1707371809
339,nova sintra,14.8667,-24.7167,20.9,75,0,7.95,CV,1707371650
340,monchique,37.3177,-8.5553,13.97,81,88,4.55,PT,1707371809
341,kibondo,-3.5864,30.7203,18.94,86,0,0.45,TZ,1707371810
342,north elba,44.2434,-73.9543,-3.89,84,53,0.76,US,1707371810
343,palapye,-22.546,27.1251,29.58,31,67,2.75,BW,1707371810
344,sault ste. marie,46.5168,-84.3333,2.16,87,0,2.57,CA,1707371537
345,nyurba,63.2842,118.3319,-27.12,97,100,1.0,RU,1707371811
346,el ksour,35.8961,8.8849,6.62,68,0,3.01,TN,1707371811
347,saint-pierre,-21.3393,55.4781,28.82,70,100,1.54,RE,1707371811
348,yilan,24.757,121.753,14.39,90,100,2.46,TW,1707371812
349,salaqi,40.5414,110.5108,-5.89,73,69,2.28,CN,1707371691
350,sovetskaya gavan',48.9723,140.2878,-10.5,71,100,2.72,RU,1707371812
351,dawson creek,55.7666,-120.2362,-7.2,79,100,1.03,CA,1707371646
352,sakhipur,24.3,90.1833,24.73,20,14,3.85,BD,1707371813
353,likhoslavl',57.1275,35.464,-18.41,97,97,2.5,RU,1707371813
354,prince rupert,54.3161,-130.3201,2.83,93,100,3.09,CA,1707371813
355,grande prairie,55.1667,-118.8027,-5.9,86,100,0.0,CA,1707371230
356,qarazhal,48.0078,70.7903,-4.79,89,96,10.46,KZ,1707371814
357,dapa,9.7594,126.0531,27.39,76,67,4.6,PH,1707371814
358,razole,16.4833,81.8333,33.14,40,46,1.94,IN,1707371814
359,axim,4.8699,-2.2405,24.69,86,6,0.17,GH,1707371815
360,nuuk,64.1835,-51.7216,-9.95,83,100,5.89,GL,1707371815
361,khovd,48.0056,91.6419,-15.96,81,24,2.19,MN,1707371698
362,hawera,-39.5917,174.2833,19.91,73,88,5.39,NZ,1707371815
363,callao,-12.0667,-77.15,27.07,73,0,6.17,PE,1707371816
364,north bend,43.4065,-124.2243,7.18,100,100,2.06,US,1707371816
365,la passe,45.5549,-0.8967,11.13,87,100,5.16,FR,1707371677
366,kavaratti,10.5669,72.642,28.11,73,91,3.16,IN,1707371816
367,el nido,11.1858,119.3956,28.08,71,36,4.8,PH,1707371817
368,desaguadero,-16.5656,-69.0417,7.9,74,99,1.35,PE,1707371817
369,camargo,27.6667,-105.1667,10.7,57,0,3.55,MX,1707371817
370,qamdo,31.1667,97.2333,-2.89,37,100,1.03,CN,1707371638
371,labytnangi,66.6572,66.4183,-4.96,93,100,7.2,RU,1707371818
372,huadian,42.9633,126.7478,-8.15,79,29,0.44,CN,1707371818
373,pimentel,-6.8367,-79.9342,25.16,88,0,6.69,PE,1707371818
374,saida,34.8303,0.1517,1.88,39,22,4.36,DZ,1707371819
375,port shepstone,-30.7414,30.455,23.41,73,93,3.66,ZA,1707371819
376,infantes,38.7367,-3.0122,6.68,97,91,4.21,ES,1707371819
377,shetpe,44.1667,52.1167,8.96,63,73,7.53,KZ,1707371820
378,kalmunai,7.4167,81.8167,27.93,65,66,4.2,LK,1707371820
379,port moresby,-9.4431,147.1797,28.68,74,20,5.14,PG,1707371820
380,sao lourenco do sul,-31.3653,-51.9783,20.96,92,61,2.77,BR,1707371648
381,mont-laurier,46.5501,-75.4993,-1.21,96,94,0.7,CA,1707371821
382,nagqu,31.5,92.0,-3.82,11,0,11.26,CN,1707371638
383,hanceville,34.0607,-86.7675,11.95,75,100,2.64,US,1707371821
384,ndioum,16.5129,-14.6471,23.53,10,0,4.3,SN,1707371821
385,veraval,20.9,70.3667,27.02,40,58,5.26,IN,1707371650
386,camilla,31.2313,-84.2105,8.5,63,80,3.0,US,1707371822
387,galesong,-5.3166,119.3661,29.01,72,82,3.61,ID,1707371823
388,aras-asan,8.8908,126.3033,26.11,84,100,1.83,PH,1707371823
389,pauini,-7.7136,-66.9764,23.09,99,100,0.48,BR,1707371632
390,kapa'a,22.0752,-159.319,23.18,76,20,8.23,US,1707371648
391,vanimo,-2.6741,141.3028,29.27,73,81,5.69,PG,1707371824
392,alaghsas,17.0187,8.0168,12.94,26,0,4.12,NE,1707371824
393,gaigeturi,33.4644,126.3183,6.03,61,75,2.57,KR,1707371824
394,zhanibek,49.4167,46.85,3.61,92,98,9.95,KZ,1707371825
395,caleta de carquin,-11.0925,-77.6267,24.19,85,43,3.09,PE,1707371825
396,mizdah,31.4451,12.9801,8.47,49,0,3.13,LY,1707371825
397,weno,7.4515,151.8468,28.97,74,75,5.14,FM,1707371826
398,sokolow podlaski,52.4068,22.2531,-0.87,85,100,2.93,PL,1707371826
399,castillos,-34.1667,-53.8333,20.36,92,39,3.13,UY,1707371826
400,itapirapua,-15.8233,-50.6133,22.67,88,99,1.26,BR,1707371827
401,antigonish,45.6169,-61.9986,-2.32,95,89,2.38,CA,1707371699
402,ipatovo,45.7181,42.9036,11.43,50,18,9.25,RU,1707371733
403,diego de almagro,-26.3667,-70.05,19.67,56,32,0.9,CL,1707371827
404,tayaman,13.2295,120.5726,29.56,62,46,4.29,PH,1707371828
405,howard springs,-12.497,131.047,32.12,69,83,1.55,AU,1707371643
406,puerto baquerizo moreno,-0.9,-89.6,25.56,80,74,4.72,EC,1707371828
407,traverse city,44.7631,-85.6206,6.11,76,0,1.54,US,1707371829
408,polyarnyy,69.1989,33.4478,-23.28,100,89,3.6,RU,1707371829
409,mulayjah,27.271,48.4242,16.09,35,0,3.6,SA,1707371829
410,tofol,5.3248,163.0078,28.01,80,77,8.66,FM,1707371685
411,lamesa,32.7376,-101.951,12.1,29,48,9.32,US,1707371669
412,puerto lempira,15.2667,-83.7667,23.34,71,93,5.32,HN,1707371830
413,huntsville,34.7304,-86.5861,12.14,56,0,4.02,US,1707371582
414,nsanje,-16.92,35.262,29.83,66,100,0.68,MW,1707371831
415,turabah,21.2141,41.6331,13.47,57,73,7.61,SA,1707371832
416,mugia,43.1041,-9.2179,13.84,89,100,19.27,ES,1707371832
417,burang,30.25,81.1667,-5.55,34,10,3.76,CN,1707371832
418,wolmaransstad,-27.1974,25.9831,23.66,26,100,2.58,ZA,1707371833
419,iguape,-24.7081,-47.5553,22.83,95,73,1.14,BR,1707371833
420,krasnozerskoye,53.9828,79.2374,-5.55,87,23,5.92,RU,1707371834
421,birjand,32.8663,59.2211,9.26,17,0,7.2,IR,1707371834
422,ouarzazat,30.9189,-6.8934,7.16,31,0,1.03,MA,1707371834
423,kimbe,-5.5502,150.1429,24.63,95,100,2.78,PG,1707371835
424,nieuw amsterdam,5.8833,-55.0833,25.09,83,4,3.22,SR,1707371835
425,harstad,68.799,16.5293,-4.36,91,57,10.28,NO,1707371835
426,razvad,44.9333,25.5333,5.71,99,48,2.09,RO,1707371836
427,cannonvale,-20.2833,148.7,24.66,68,46,8.37,AU,1707371836
428,shagonar,51.5333,92.8,-22.16,89,93,0.95,RU,1707371836
429,fort bragg,35.139,-79.006,2.86,82,0,0.0,US,1707371836
430,nouadhibou,20.931,-17.0347,17.99,59,44,4.12,MR,1707371837
431,luanda,-8.8368,13.2343,26.0,89,75,1.54,AO,1707371593
432,el jadid,33.2549,-8.506,14.04,52,54,5.39,MA,1707371837
433,san andres,12.5847,-81.7006,26.01,73,40,7.2,CO,1707371838
434,lakhipur,26.0299,90.3041,22.19,28,0,1.75,IN,1707371838
435,bohinjska bistrica,46.2722,13.9535,6.88,95,100,1.68,SI,1707371838
436,ploneour-lanvern,47.9,-4.2833,13.18,94,100,9.26,FR,1707371839
437,kutulik,53.3508,102.7839,-10.25,89,89,2.41,RU,1707371839
438,laguna,38.421,-121.4238,8.05,91,100,2.06,US,1707371839
439,mo i rana,66.3128,14.1428,-9.74,92,75,1.03,NO,1707371839
440,tidjikja,18.5564,-11.4271,18.94,13,0,6.11,MR,1707371840
441,mogocha,53.7333,119.7667,-8.79,68,23,0.79,RU,1707371840
442,hovd,48.0056,91.6419,-15.96,81,24,2.19,MN,1707371841
443,prado,-17.3411,-39.2208,25.25,87,100,1.66,BR,1707371841
444,alofi,-19.0595,-169.9187,27.66,81,9,5.38,NU,1707371841
445,rezh,57.37,61.4043,-8.9,94,93,1.31,RU,1707371841
446,trinidad,-14.8333,-64.9,23.03,96,13,1.7,BO,1707371842
447,conde,-7.2597,-34.9075,27.7,83,40,2.06,BR,1707371842
448,nabire,-3.3667,135.4833,29.83,65,99,1.42,ID,1707371646
449,del rio,29.3627,-100.8968,17.06,70,0,5.36,US,1707371742
450,barra de santo antonio,-9.4047,-35.5072,25.6,83,77,3.94,BR,1707371669
451,kindu,-2.95,25.95,23.28,90,11,1.3,CD,1707371844
452,holualoa,19.6228,-155.9522,22.91,80,75,2.06,US,1707371844
453,sultanah,24.4926,39.5857,16.25,31,0,3.09,SA,1707371845
454,ad dilam,23.9915,47.1627,14.23,23,33,1.57,SA,1707371676
455,carnarvon,-24.8667,113.6333,31.59,49,0,6.85,AU,1707371845
456,nova vicosa,-17.8919,-39.3719,25.31,86,100,1.65,BR,1707371846
457,mata-utu,-13.2816,-176.1745,28.78,82,97,9.31,WF,1707371846
458,egilsstadir,65.2653,-14.3948,-5.05,68,75,2.06,IS,1707371846
459,tejen,37.3834,60.5054,13.7,40,83,1.41,TM,1707371846
460,san juan de miraflores,-12.1629,-76.9635,26.21,73,17,3.02,PE,1707371847
461,masjed soleyman,31.9364,49.3039,14.65,39,0,0.62,IR,1707371847
462,hoemul-li,41.4339,129.67,0.56,57,0,2.14,KP,1707371847
463,kudahuvadhoo,2.6708,72.8944,27.75,71,97,7.35,MV,1707371848
464,saint-francois,46.4154,3.9054,9.8,94,100,3.09,FR,1707371848
465,yafran,32.0633,12.5286,8.53,47,0,2.38,LY,1707371848
466,nuku'alofa,-21.1333,-175.2,30.19,79,20,4.12,TO,1707371849
467,diamond bar,34.0286,-117.8103,10.87,93,100,3.6,US,1707371849
468,patacamaya,-17.2333,-67.9167,8.61,82,98,2.44,BO,1707371666
469,oranjemund,-28.55,16.4333,18.61,76,12,3.44,NA,1707371850
470,pavilosta,56.8879,21.1859,-0.05,90,100,2.69,LV,1707371850
471,la dorada,5.4478,-74.6631,24.02,94,100,1.02,CO,1707371850
472,rabigh,22.7986,39.0349,24.46,42,35,3.83,SA,1707371851
473,gurgentepe,40.7883,37.6017,3.9,67,97,5.39,TR,1707371851
474,hami,42.8,93.45,0.22,51,4,1.04,CN,1707371851
475,jinshi,29.6049,111.8701,4.64,77,56,1.69,CN,1707371852
476,visby,57.6409,18.296,-4.54,86,75,0.0,SE,1707371852
477,tobruk,32.0836,23.9764,14.17,67,100,5.68,LY,1707371687
478,cabo san lucas,22.8909,-109.9124,20.98,65,91,3.09,MX,1707371428
479,ancud,-41.8697,-73.8203,9.6,87,87,2.78,CL,1707371853
480,mejit,10.2753,170.8646,26.71,82,80,8.19,MH,1707371853
481,uliastay,47.7417,96.8444,-11.16,66,1,0.52,MN,1707371854
482,ocean shores,46.9737,-124.1563,7.75,90,100,0.0,US,1707371854
483,puerto colombia,10.9878,-74.9547,25.05,78,60,6.33,CO,1707371854
484,bari,41.1177,16.8512,10.7,84,0,3.09,IT,1707371855
485,taoudenni,22.6783,-3.9836,15.49,20,29,3.59,ML,1707371653
486,bardai,11.65,7.2333,14.17,22,6,5.13,NG,1707371855
487,dompu,-8.5356,118.4622,32.93,55,36,2.16,ID,1707371856
488,taganrog,47.2362,38.8969,5.59,91,92,6.52,RU,1707371856
489,cill airne,52.05,-9.5167,7.19,97,100,3.36,IE,1707371857
490,contamana,-7.3333,-75.0167,23.16,95,94,0.27,PE,1707371857
491,flying fish cove,-10.4217,105.6791,28.82,74,40,3.09,CX,1707371673
492,fontanelas,38.8472,-9.4372,16.44,91,100,11.57,PT,1707371857
493,omaruru,-21.4333,15.9333,22.66,52,98,2.16,NA,1707371858
494,pitimbu,-7.4706,-34.8086,28.33,83,85,3.48,BR,1707371858
495,magadan,59.5667,150.8,-20.95,86,12,1.99,RU,1707371858
496,sao jose da coroa grande,-8.8978,-35.1478,26.24,81,95,3.34,BR,1707371859
497,naivasha,-0.7167,36.4359,20.61,62,28,1.06,KE,1707371859
498,toba,34.4833,136.85,9.0,55,40,3.13,JP,1707371859
499,lloydminster,53.2835,-110.0016,-5.88,86,100,2.57,CA,1707371860
500,saint-joseph,-21.3667,55.6167,28.21,82,73,5.06,RE,1707371682
501,taguatinga,-12.3857,-46.5711,22.92,89,93,0.79,BR,1707371685
502,fada,9.5667,8.3,16.9,29,9,2.76,NG,1707371860
503,varzea da palma,-17.5981,-44.7308,21.06,98,100,1.19,BR,1707371861
504,vryheid,-27.7695,30.7917,20.03,81,98,2.28,ZA,1707371861
505,hasaki,35.7333,140.8333,12.38,67,100,3.98,JP,1707371650
506,priozersk,61.0393,30.1291,-12.17,58,100,3.39,RU,1707371646
507,kampong speu,11.5,104.3333,36.25,36,30,2.78,KH,1707371862
508,karis,60.0718,23.6616,-12.43,72,46,2.21,FI,1707371862
509,tarawa,1.419,172.984,29.04,81,89,7.19,KI,1707371863
510,tongchuanshi,35.0806,109.0897,3.8,49,13,1.98,CN,1707371863
511,orchard homes,46.8633,-114.0484,0.89,96,100,0.0,US,1707371863
512,bubaque,11.2833,-15.8333,25.93,68,100,4.14,GW,1707371662
513,posadas,-27.3671,-55.8961,27.99,65,0,1.03,AR,1707371864
514,chornukhyne,48.3278,38.5019,5.39,80,100,6.75,UA,1707371864
515,alice springs,-23.7,133.8833,34.56,14,11,7.72,AU,1707371709
516,den helder,52.9599,4.7593,1.99,88,100,1.54,NL,1707371825
517,kidal,18.4411,1.4078,14.82,17,21,4.25,ML,1707371865
518,chernyshevsk,52.5243,117.0174,-14.18,88,54,1.45,RU,1707371865
519,andirin,37.5776,36.3549,6.93,89,91,1.04,TR,1707371865
520,punta del este,-34.9667,-54.95,25.06,89,0,3.09,UY,1707371865
521,tieli,46.95,128.05,-9.19,87,100,2.33,CN,1707371866
522,ghatampur,26.1667,80.1667,19.26,29,51,7.2,IN,1707371866
523,malango,-2.9627,119.9001,27.26,69,100,0.58,ID,1707371866
524,shemgang,27.2169,90.6579,5.95,85,84,2.05,BT,1707371866
525,ngaoundere,7.3167,13.5833,16.8,27,13,1.88,CM,1707371867
526,marsa alam,25.0757,34.8918,19.77,59,0,6.29,EG,1707371867
527,sandnessjoen,66.0217,12.6316,-2.94,93,75,7.71,NO,1707371867
528,jiaozuo,35.2397,113.2331,7.32,44,3,3.56,CN,1707371868
529,paraguacu paulista,-22.4128,-50.5758,20.3,95,87,2.58,BR,1707371868
530,bandar lampung,-5.4254,105.258,29.58,70,74,1.49,ID,1707371868
531,saint-denis,48.9167,2.3333,13.09,96,100,6.69,FR,1707371868
532,ha'il,27.5219,41.6907,5.01,48,0,2.06,SA,1707371869
533,san patricio,28.017,-97.5169,20.47,80,96,9.25,US,1707371666
534,gazli,40.1333,63.45,10.92,45,100,2.71,UZ,1707371869
535,puerto la cruz,10.2167,-64.6167,25.01,90,51,0.81,VE,1707371869
536,piracuruca,-3.9281,-41.7092,25.22,77,46,1.66,BR,1707371870
537,richards bay,-28.783,32.0377,25.32,74,78,3.98,ZA,1707371655
538,coro,11.4045,-69.6734,24.52,84,99,1.34,VE,1707371870
539,selfoss,63.9331,-20.9971,-12.2,81,3,5.15,IS,1707371870
540,dazhong,33.1997,120.4578,5.7,45,98,3.09,CN,1707371871
541,brezova pod bradlom,48.6635,17.539,6.22,86,100,5.17,SK,1707371871
542,ocean city,39.2776,-74.5746,2.21,87,2,1.34,US,1707371871
543,greymouth,-42.4667,171.2,16.19,68,72,5.34,NZ,1707371871
544,inongo,-1.95,18.2667,24.07,84,99,2.18,CD,1707371872
545,napier,-39.4833,176.9167,22.93,84,19,1.79,NZ,1707371872
546,khandyga,62.6667,135.6,-34.4,96,69,0.15,RU,1707371644
547,kiama,-34.6833,150.8667,22.78,54,86,4.38,AU,1707371872
548,topolovgrad,42.0833,26.3333,8.69,92,100,1.49,BG,1707371873
549,forio,40.7342,13.8646,13.57,82,7,1.79,IT,1707371873
550,gizo,-8.103,156.8419,28.54,80,100,7.42,SB,1707371874
551,pervomaysk,48.0443,30.8507,5.74,79,100,3.3,UA,1707371874
552,saint-philippe,-21.3585,55.7679,28.77,87,83,6.24,RE,1707371665
553,zheshart,62.0731,49.5733,-5.54,95,100,4.31,RU,1707371874
554,sierre,46.2919,7.5356,10.43,95,20,2.06,CH,1707371875
555,pathalgaon,22.5667,83.4667,24.62,25,11,3.58,IN,1707371875
556,milford,41.2223,-73.0565,2.23,81,0,0.89,US,1707371875
557,rio gallegos,-51.6226,-69.2181,9.03,71,0,9.26,AR,1707371876
558,kabansk,52.0486,106.6528,-8.47,70,59,0.78,RU,1707371876
559,al marj,32.488,20.8317,10.08,60,21,4.39,LY,1707371876
560,port blair,11.6667,92.75,31.02,42,20,3.6,IN,1707371877
561,lengshuitan,26.4111,111.5956,2.76,90,92,2.21,CN,1707371877
562,phatthalung,7.5,100.0833,31.34,55,0,3.51,TH,1707371877
